[{"rating": 4.0, "name": "Parker & Otis", "zip": "27701", "city": "Durham", "coords": {"latitude": 35.998951, "longitude": -78.9088821}, "address": "112 S Duke St"}, {"rating": 4.0, "name": "Loaf", "zip": "27701", "city": "Durham", "coords": {"latitude": 35.9957517, "longitude": -78.9007399}, "address": "111 W Parrish St"}, {"rating": 4.0, "name": "Rue Cler", "zip": "27701", "city": "Durham", "coords": {"latitude": 35.9970358, "longitude": -78.8997553}, "address": "401 E Chapel Hill St"}, {"rating": 4.0, "name": "Watts Grocery", "zip": "27705", "city": "Durham", "coords": {"latitude": 36.0165367, "longitude": -78.9190521}, "address": "1116 Broad St"}, {"rating": 4.0, "name": "The Refectory Cafe", "zip": "27707", "city": "Durham", "coords": {"latitude": 35.974381, "longitude": -78.933032}, "address": "2726 Durham Chapel Hill Blvd"}, {"rating": 4.0, "name": "Foster's Market", "zip": "27707", "city": "Durham", "coords": {"latitude": 35.9745864868164, "longitude": -78.9313507080078}, "address": "2694 Durham Chapel Hill Blvd"}, {"rating": 4.0, "name": "Elmo's Diner", "zip": "27705", "city": "Durham", "coords": {"latitude": 36.010505, "longitude": -78.921646}, "address": "776 9th St"}, {"rating": 4.5, "name": "Nzinga's", "zip": "27701", "city": "Durham", "coords": {"latitude": 35.9855554997921, "longitude": -78.8989075273275}, "address": "826 Fayetville St"}, {"rating": 4.0, "name": "Guglhupf Bakery & Patisserie", "zip": "27707", "city": "Durham", "coords": {"latitude": 35.9744816811214, "longitude": -78.932336731708}, "address": "2706 Durham-Chapel Hill Blvd Ste 1"}, {"rating": 4.0, "name": "Dame's Chicken & Waffles", "zip": "27701", "city": "Durham", "coords": {"latitude": 35.996307, "longitude": -78.903374}, "address": "317 W Main St"}, {"rating": 4.0, "name": "Wimpy's Grill", "zip": "27705", "city": "Durham", "coords": {"latitude": 36.012969, "longitude": -78.932128}, "address": "617 Hicks St"}, {"rating": 3.5, "name": "Bey\u00fa Caff\u00e9", "zip": "27701", "city": "Durham", "coords": {"latitude": 35.9966202825308, "longitude": -78.9035765826702}, "address": "335 W Main St"}, {"rating": 4.0, "name": "Bull Street Gourmet & Market", "zip": "27707", "city": "Durham", "coords": {"latitude": 35.956193, "longitude": -78.956087}, "address": "3710 Shannon Rd"}, {"rating": 4.5, "name": "Rise Biscuits & Donuts", "zip": "27713", "city": "Durham", "coords": {"latitude": 35.903979801965, "longitude": -78.9543714044709}, "address": "8200 Renaissance Pkwy Ste 1003"}, {"rating": 3.5, "name": "Another Broken Egg Cafe", "zip": "27705", "city": "Durham", "coords": {"latitude": 36.00954, "longitude": -78.9449}, "address": "2608 Erwin Rd Ste 120"}, {"rating": 3.5, "name": "Hummingbird Bakery", "zip": "27705", "city": "Durham", "coords": {"latitude": 36.0094353865054, "longitude": -78.9197775684172}, "address": "721 Broad St"}, {"rating": 4.0, "name": "Nosh", "zip": "27705", "city": "Durham", "coords": {"latitude": 36.007468, "longitude": -78.9472}, "address": "2812 Erwin Rd Ste 101"}, {"rating": 4.5, "name": "Dulce Caf\u00e9", "zip": "27713", "city": "Durham", "coords": {"latitude": 35.921447, "longitude": -78.928381}, "address": "5826 Fayetteville Rd Ste 106"}, {"rating": 3.5, "name": "Monuts", "zip": "27705", "city": "Durham", "coords": {"latitude": 36.0139122009277, "longitude": -78.9214324951172}, "address": "1002 Ninth St"}, {"rating": 4.0, "name": "William's Gourmet Kitchen", "zip": "27713", "city": "Durham", "coords": {"latitude": 35.9015198, "longitude": -78.8938522}, "address": "2114 E Hwy 54"}]
