[{"rating": 4.5, "name": "Sunrise Biscuit Kitchen", "zip": "27514", "city": "Chapel Hill", "coords": {"latitude": 35.92757, "longitude": -79.0355}, "address": "1305 E Franklin St"}, {"rating": 4.0, "name": "Ye Olde Waffle Shoppe", "zip": "27514", "city": "Chapel Hill", "coords": {"latitude": 35.9142609, "longitude": -79.0534592}, "address": "173 E Franklin St"}, {"rating": 4.0, "name": "The Root Cellar Cafe and Catering", "zip": "27514", "city": "Chapel Hill", "coords": {"latitude": 35.92436, "longitude": -79.0536}, "address": "750 Mlk Jr Blvd"}, {"rating": 4.5, "name": "Merritt's Store & Grill", "zip": "27514", "city": "Chapel Hill", "coords": {"latitude": 35.895513255937, "longitude": -79.0580630823163}, "address": "1009 S Columbia St"}, {"rating": 3.5, "name": "Crook's Corner", "zip": "27516", "city": "Chapel Hill", "coords": {"latitude": 35.9098396, "longitude": -79.0649719}, "address": "610 W Franklin St"}, {"rating": 3.5, "name": "Crossroads Chapel Hill", "zip": "27516", "city": "Chapel Hill", "coords": {"latitude": 35.9095999, "longitude": -79.0546808}, "address": "211 Pittsboro St"}, {"rating": 4.5, "name": "Great Harvest Bread Co", "zip": "27514", "city": "Chapel Hill", "coords": {"latitude": 35.9324591606855, "longitude": -79.0278372913599}, "address": "229 S Elliott Rd"}, {"rating": 3.0, "name": "The Egg & I", "zip": "27517", "city": "Chapel Hill", "coords": {"latitude": 35.9069363725682, "longitude": -79.0212706522494}, "address": "1101 Environ Way"}, {"rating": 4.5, "name": "Crepe Traditions", "zip": "27516", "city": "Chapel Hill", "coords": {"latitude": 35.9126, "longitude": -79.05768}, "address": "140 W Franklin St Ste 120"}, {"rating": 3.0, "name": "Breadmen's", "zip": "27516", "city": "Chapel Hill", "coords": {"latitude": 35.9125214, "longitude": -79.061058}, "address": "324 W Rosemary St"}, {"rating": 3.5, "name": "Carolina Coffee Shop", "zip": "27514", "city": "Chapel Hill", "coords": {"latitude": 35.9133605957031, "longitude": -79.0542831420898}, "address": "138 E Franklin St"}, {"rating": 4.0, "name": "Sutton's Drug Store", "zip": "27514", "city": "Chapel Hill", "coords": {"latitude": 35.9142150878906, "longitude": -79.0539321899414}, "address": "159 E Franklin St"}, {"rating": 3.0, "name": "Cafe Carolina and Bakery", "zip": "27517", "city": "Chapel Hill", "coords": {"latitude": 35.9052186, "longitude": -79.0103335}, "address": "601 Meadowmont Village Cir"}, {"rating": 3.0, "name": "Mama Dip's Kitchen", "zip": "27516", "city": "Chapel Hill", "coords": {"latitude": 35.911678314209, "longitude": -79.0634384155273}, "address": "408 W Rosemary St"}, {"rating": 3.5, "name": "Fig & Honey", "zip": "27517", "city": "Chapel Hill", "coords": {"latitude": 35.8318977355957, "longitude": -79.0882263183594}, "address": "141 Chatham Downs Dr Ste 201"}, {"rating": 3.5, "name": "Weathervane Restaurant", "zip": "27516", "city": "Chapel Hill", "coords": {"latitude": 35.92579, "longitude": -79.0255899}, "address": "201 S Estes Dr"}, {"rating": 4.0, "name": "Crook's Atrium Cafe", "zip": "27517", "city": "Chapel Hill", "coords": {"latitude": 35.9396591, "longitude": -79.0185089}, "address": "100 Europa Dr"}, {"rating": 3.5, "name": "411 West", "zip": "27516", "city": "Chapel Hill", "coords": {"latitude": 35.9106102, "longitude": -79.0615082}, "address": "411 W Franklin St"}, {"rating": 3.5, "name": "The Bagel Bar", "zip": "27514", "city": "Chapel Hill", "coords": {"latitude": 35.9619886, "longitude": -79.0351653}, "address": "630 Weaver Dairy Rd"}, {"rating": 4.0, "name": "Jessee's Coffee and Bar", "zip": "27510", "city": "Carrboro", "coords": {"latitude": 35.9107819, "longitude": -79.0666199}, "address": "401 E Main St"}]
