[{"rating": 4.0, "name": "DCity Smokehouse", "zip": "20001", "city": "Washington", "coords": {"latitude": 38.910887, "longitude": -77.009254}, "address": "8 Florida Ave NW", "categories": "*Barbeque*Sandwiches"}, {"rating": 3.5, "name": "Hill Country BBQ Market", "zip": "20004", "city": "Washington", "coords": {"latitude": 38.8950220495462, "longitude": -77.0219627022743}, "address": "410 7th St NW", "categories": "*Barbeque"}, {"rating": 4.0, "name": "Garden District", "zip": "20009", "city": "Washington", "coords": {"latitude": 38.9141842, "longitude": -77.0320102}, "address": "1801 14th St NW", "categories": "*Barbeque*German"}, {"rating": 4.5, "name": "Sotto", "zip": "20009", "city": "Washington", "coords": {"latitude": 38.9115601, "longitude": -77.0323563}, "address": "1610 14th St NW", "categories": "*Cocktail Bars*Jazz & Blues*Barbeque"}, {"rating": 4.0, "name": "Due South", "zip": "20003", "city": "Washington", "coords": {"latitude": 38.8736727814319, "longitude": -77.0016910383342}, "address": "301 Water St .SE", "categories": "*Southern*Cajun/Creole*Barbeque"}, {"rating": 3.5, "name": "Pitmasters Back Alley BBQ", "zip": "20016", "city": "Washington", "coords": {"latitude": 38.9462448656559, "longitude": -77.0948980003595}, "address": "4818 Yuma St  NW", "categories": "*Barbeque"}, {"rating": 4.0, "name": "Smoking Kow BBQ", "zip": "20004", "city": "Washington", "coords": {"latitude": 38.8951382, "longitude": -77.0226217}, "address": "", "categories": "*Food Trucks*Barbeque"}, {"rating": 4.0, "name": "BBQ Bus", "zip": 0, "city": "Washington", "coords": {"latitude": 38.9887084960938, "longitude": -77.027473449707}, "address": "", "categories": "*Barbeque*Street Vendors"}, {"rating": 4.5, "name": "Wicked Bloom", "zip": "20002", "city": "Washington", "coords": {"latitude": 38.9106903076172, "longitude": -77.0094604492188}, "address": "1540 N Capital St NW", "categories": "*Barbeque*Cocktail Bars"}, {"rating": 3.5, "name": "Smoke & Barrel", "zip": "20009", "city": "Washington", "coords": {"latitude": 38.922291, "longitude": -77.042229}, "address": "2471 18th St NW", "categories": "*Bars*American (New)*Barbeque"}, {"rating": 3.5, "name": "Rocklands Barbeque & Grilling Company", "zip": "20007", "city": "Washington", "coords": {"latitude": 38.9215049743652, "longitude": -77.0726013183594}, "address": "2418 Wisconsin Ave NW", "categories": "*Barbeque*Caterers"}, {"rating": 4.0, "name": "Kangaroo Boxing Club", "zip": "20010", "city": "Washington", "coords": {"latitude": 38.9321403503418, "longitude": -77.0285873413086}, "address": "3410 11th St Nw", "categories": "*American (Traditional)*Barbeque*Pubs"}, {"rating": 3.5, "name": "Fat Pete's Barbeque", "zip": "20008", "city": "Washington", "coords": {"latitude": 38.934774, "longitude": -77.057528}, "address": "3407 Connecticut Ave NW", "categories": "*Barbeque"}, {"rating": 4.0, "name": "The BBQ Joint", "zip": "20002", "city": "Washington", "coords": {"latitude": 38.9087715, "longitude": -76.9978333}, "address": "1309 5th St NE Union Market", "categories": "*Barbeque"}, {"rating": 3.0, "name": "Kenny's BBQ Smokehouse", "zip": "20002", "city": "Washington", "coords": {"latitude": 38.8957138061523, "longitude": -76.9952011108398}, "address": "732 Maryland Ave NE", "categories": "*Barbeque"}, {"rating": 3.5, "name": "King Ribs", "zip": "20024", "city": "Washington", "coords": {"latitude": 38.878563, "longitude": -77.023979}, "address": "700 Water St SW", "categories": "*Street Vendors*Barbeque"}, {"rating": 4.0, "name": "Texas de Brazil", "zip": "20001", "city": "Washington", "coords": {"latitude": 38.90106, "longitude": -77.01755}, "address": "455 Massachusetts Ave NW Ste 100", "categories": "*Steakhouses*Barbeque*Brazilian"}, {"rating": 3.0, "name": "Old Glory BBQ", "zip": "20007", "city": "Washington", "coords": {"latitude": 38.9054641723633, "longitude": -77.0621948242188}, "address": "3139 M St NW", "categories": "*Barbeque*Bars*American (Traditional)"}, {"rating": 3.0, "name": "Willie's Brew & Que", "zip": "20003", "city": "Washington", "coords": {"latitude": 38.8751109010573, "longitude": -77.0017007858162}, "address": "300 Tingey St SE", "categories": "*Sports Bars*Barbeque"}, {"rating": 3.5, "name": "Carnivore BBQ", "zip": 0, "city": "Washington", "coords": 0, "address": "", "categories": "*Barbeque*Food Trucks"}]
