[{"rating": 4.0, "name": "Mandu", "zip": "20001", "city": "Washington", "coords": {"latitude": 38.9025650918484, "longitude": -77.0176282525063}, "address": "453 K St NW", "categories": "*Korean"}, {"rating": 4.0, "name": "Triple B Fresh", "zip": "20036", "city": "Washington", "coords": {"latitude": 38.9107260170919, "longitude": -77.0436065962981}, "address": "1506 19th St NW", "categories": "*Korean*Vegetarian"}, {"rating": 4.0, "name": "Cafe Kimchi", "zip": "20003", "city": "Washington", "coords": {"latitude": 38.879565, "longitude": -76.995237}, "address": "751 8th St SE", "categories": "*Korean*Breakfast & Brunch*American (Traditional)"}, {"rating": 4.0, "name": "Bul", "zip": "20009", "city": "Washington", "coords": {"latitude": 38.921250049015, "longitude": -77.0419890467348}, "address": "2431 18th St NW", "categories": "*Korean*Bars"}, {"rating": 4.5, "name": "KoChix", "zip": "20001", "city": "Washington", "coords": {"latitude": 38.9137428308672, "longitude": -77.0163538679481}, "address": "400 Florida Ave NW", "categories": "*Korean"}, {"rating": 4.5, "name": "Korean Signature Bibimbap", "zip": "20006", "city": "Washington", "coords": {"latitude": 38.901821, "longitude": -77.042059}, "address": "1825 I St NW", "categories": "*Korean"}, {"rating": 4.0, "name": "Sakuramen", "zip": "20009", "city": "Washington", "coords": {"latitude": 38.92157, "longitude": -77.041985}, "address": "2441 18th St NW", "categories": "*Asian Fusion*Ramen*Korean"}, {"rating": 3.5, "name": "Mandu", "zip": "20009", "city": "Washington", "coords": {"latitude": 38.9143372, "longitude": -77.041481}, "address": "1805 18th St NW", "categories": "*Korean"}, {"rating": 4.0, "name": "Bulgogi Cart", "zip": "20004", "city": "Washington", "coords": {"latitude": 38.9037735542227, "longitude": -77.0320636032104}, "address": "1400 L St", "categories": "*Korean*Food Stands"}, {"rating": 4.0, "name": "Korengy", "zip": 0, "city": "Washington", "coords": {"latitude": 38.884162331337, "longitude": -76.9929168419719}, "address": "Federal Triangle", "categories": "*Korean*Food Stands"}, {"rating": 3.5, "name": "Rice Bar", "zip": "20036", "city": "Washington", "coords": {"latitude": 38.903152, "longitude": -77.043816}, "address": "1020 19th St NW", "categories": "*Korean*Sushi Bars"}, {"rating": 3.5, "name": "Bonchon Navy Yard", "zip": "20003", "city": "Washington", "coords": {"latitude": 38.8781831413507, "longitude": -77.0075250416994}, "address": "1015 Half St SE", "categories": "*Chicken Wings*Korean*Asian Fusion"}, {"rating": 4.0, "name": "Coffee Nature", "zip": "20016", "city": "Washington", "coords": {"latitude": 38.9546448737383, "longitude": -77.0828837156296}, "address": "4224 Fessenden St NW", "categories": "*Coffee & Tea*Korean*Sandwiches"}, {"rating": 3.5, "name": "TaKorean Korean Taco Grill", "zip": "20003", "city": "Washington", "coords": {"latitude": 38.875149, "longitude": -77.0002018}, "address": "The Yards 1212 4th St SE", "categories": "*Korean*Asian Fusion*Food Trucks"}, {"rating": 4.0, "name": "TaKorean Korean Taco Grill", "zip": "20002", "city": "Washington", "coords": {"latitude": 38.908851519227, "longitude": -76.9979106634855}, "address": "Union Market 1309 5th St NE", "categories": "*Asian Fusion*Korean"}, {"rating": 4.0, "name": "Korean Food Cart", "zip": "20005", "city": "Washington", "coords": {"latitude": 38.9029083, "longitude": -77.0330582}, "address": "1425 K St NW", "categories": "*Korean*Food Stands"}, {"rating": 4.5, "name": "Rolling Cow", "zip": "20006", "city": "Washington", "coords": {"latitude": 38.897244, "longitude": -77.0413344}, "address": "", "categories": "*Food Trucks*Korean*American (Traditional)"}, {"rating": 4.0, "name": "Eat Chicken PL.", "zip": "20010", "city": "Washington", "coords": {"latitude": 38.9373306945471, "longitude": -77.0241594314575}, "address": "3725 Georgia Ave NW", "categories": "*American (Traditional)*Korean*Chicken Wings"}, {"rating": 4.0, "name": "J & P Cafeteria", "zip": "20002", "city": "Washington", "coords": {"latitude": 38.909081, "longitude": -76.998764}, "address": "1301-A 4th St. NE", "categories": "*Korean*Sandwiches"}, {"rating": 3.5, "name": "Fire & Rice", "zip": "20005", "city": "Washington", "coords": {"latitude": 38.90133, "longitude": -77.02962}, "address": "13th & I Streets", "categories": "*Street Vendors*Korean"}]
