[{"rating": 4.5, "name": "Jun Shokudo", "zip": "11201", "city": "Brooklyn", "coords": {"latitude": 40.695049, "longitude": -73.983573}, "address": "306 Gold St Ste C2", "categories": "*Japanese*Sushi Bars"}, {"rating": 4.0, "name": "Sushi Yasaka", "zip": "10023", "city": "New York", "coords": {"latitude": 40.779583, "longitude": -73.983482}, "address": "251 W 72nd St", "categories": "*Japanese*Sushi Bars"}, {"rating": 4.5, "name": "Zest", "zip": "10002", "city": "New York", "coords": {"latitude": 40.7178344726563, "longitude": -73.9899597167969}, "address": "249 Broome St", "categories": "*Sushi Bars*Japanese*Thai"}, {"rating": 4.5, "name": "Beyond Sushi", "zip": "10003", "city": "New York", "coords": {"latitude": 40.7330207824707, "longitude": -73.9857940673828}, "address": "229 E 14th St", "categories": "*Vegetarian*Sushi Bars*Vegan"}, {"rating": 4.5, "name": "Sushi Yasuda", "zip": "10017", "city": "New York", "coords": {"latitude": 40.7511929, "longitude": -73.973729}, "address": "204 E 43rd St", "categories": "*Sushi Bars*Japanese"}, {"rating": 4.0, "name": "Izakaya MEW", "zip": "10001", "city": "New York", "coords": {"latitude": 40.7501546, "longitude": -73.9862347}, "address": "53 W 35th St Basement", "categories": "*Japanese*Sushi Bars"}, {"rating": 4.0, "name": "Ki Sushi", "zip": "11201", "city": "Brooklyn", "coords": {"latitude": 40.687645, "longitude": -73.990105}, "address": "122 Smith St", "categories": "*Sushi Bars*Japanese"}, {"rating": 4.5, "name": "Murasaki", "zip": "11101", "city": "Long Island City", "coords": {"latitude": 40.7457085, "longitude": -73.9534073}, "address": "4644 Vernon Blvd", "categories": "*Japanese*Sushi Bars"}, {"rating": 4.0, "name": "Ootoya Chelsea", "zip": "10011", "city": "New York", "coords": {"latitude": 40.738767, "longitude": -73.992778}, "address": "8 W 18th St", "categories": "*Japanese*Sushi Bars"}, {"rating": 4.0, "name": "Asuka Sushi", "zip": "10011", "city": "New York", "coords": {"latitude": 40.7452316, "longitude": -73.9986877}, "address": "300 W 23rd St", "categories": "*Sushi Bars*Japanese*Thai"}, {"rating": 4.0, "name": "Takahachi", "zip": "10009", "city": "New York", "coords": {"latitude": 40.725315, "longitude": -73.984436}, "address": "85 Ave A", "categories": "*Sushi Bars*Japanese"}, {"rating": 4.5, "name": "Beyond Sushi Midtown West", "zip": "10019", "city": "New York", "coords": {"latitude": 40.763214, "longitude": -73.977242}, "address": "62 W 56th St", "categories": "*Sushi Bars*Vegan*Vegetarian"}, {"rating": 4.5, "name": "Silver Rice", "zip": "11238", "city": "Brooklyn", "coords": {"latitude": 40.6742123562615, "longitude": -73.9568891376257}, "address": "638 Park Pl", "categories": "*Japanese*Sushi Bars*Soup"}, {"rating": 4.5, "name": "Aji Sushi House", "zip": "11105", "city": "Astoria", "coords": {"latitude": 40.7742004394531, "longitude": -73.9079513549805}, "address": "3606 Ditmars Blvd", "categories": "*Japanese*Sushi Bars*Asian Fusion"}, {"rating": 4.0, "name": "Umi Sushi", "zip": "10016", "city": "New York", "coords": {"latitude": 40.7445945739746, "longitude": -73.9819107055664}, "address": "118 E 31st St", "categories": "*Japanese*Sushi Bars"}, {"rating": 4.0, "name": "Bozu", "zip": "11211", "city": "Brooklyn", "coords": {"latitude": 40.712795, "longitude": -73.957557}, "address": "296 Grand St", "categories": "*Japanese*Asian Fusion"}, {"rating": 4.5, "name": "Akaru", "zip": "11237", "city": "Brooklyn", "coords": {"latitude": 40.70256, "longitude": -73.916016}, "address": "201 Wyckoff Ave", "categories": "*Sushi Bars*Japanese"}, {"rating": 4.0, "name": "Takesushi", "zip": "11104", "city": "Sunnyside", "coords": {"latitude": 40.7441219, "longitude": -73.9224056}, "address": "43-46 42nd St", "categories": "*Japanese*Sushi Bars"}, {"rating": 4.0, "name": "Blue Ribbon Sushi", "zip": "10012", "city": "New York", "coords": {"latitude": 40.726062, "longitude": -74.002395}, "address": "119 Sullivan St", "categories": "*Sushi Bars"}, {"rating": 4.0, "name": "Ageha Sushi", "zip": "10019", "city": "New York", "coords": {"latitude": 40.764529, "longitude": -73.988597}, "address": "767 9th Ave", "categories": "*Sushi Bars"}]
