[{"rating": 4.5, "name": "Gaia Italian Caf\u00e9", "zip": "10002", "city": "New York", "coords": {"latitude": 40.721653, "longitude": -73.985346}, "address": "251 E Houston St", "categories": "*Italian"}, {"rating": 4.0, "name": "Malatesta Trattoria", "zip": "10014", "city": "New York", "coords": {"latitude": 40.73286, "longitude": -74.00847}, "address": "649 Washington St", "categories": "*Italian"}, {"rating": 4.5, "name": "Song E Napule", "zip": "10012", "city": "New York", "coords": {"latitude": 40.7280296, "longitude": -74.0018334}, "address": "146 W Houston St", "categories": "*Pizza*Italian"}, {"rating": 4.0, "name": "Pepe Rosso Social", "zip": "10013", "city": "New York", "coords": {"latitude": 40.7200621068478, "longitude": -73.9961392432451}, "address": "173 Mott St", "categories": "*Italian"}, {"rating": 4.5, "name": "L'Artusi", "zip": "10014", "city": "New York", "coords": {"latitude": 40.733714, "longitude": -74.005068}, "address": "228 W 10th St", "categories": "*Italian"}, {"rating": 4.5, "name": "Piacere", "zip": "10013", "city": "New York", "coords": {"latitude": 40.7196979, "longitude": -73.9951175}, "address": "351 Broome St", "categories": "*Pizza*Italian"}, {"rating": 4.0, "name": "Trattoria Trecolori", "zip": "10036", "city": "New York", "coords": {"latitude": 40.75999, "longitude": -73.98671}, "address": "254 W 47th St", "categories": "*Italian"}, {"rating": 4.0, "name": "La Lanterna di Vittorio", "zip": "10012", "city": "New York", "coords": {"latitude": 40.730698, "longitude": -74.000153}, "address": "129 MacDougal St", "categories": "*Italian"}, {"rating": 4.5, "name": "Maiella", "zip": "11109", "city": "Long Island City", "coords": {"latitude": 40.7469560299045, "longitude": -73.9564332116353}, "address": "4610 Center Blvd", "categories": "*Italian*Seafood"}, {"rating": 4.5, "name": "Masseria Dei Vini", "zip": "10019", "city": "New York", "coords": {"latitude": 40.7682379335165, "longitude": -73.9855485409498}, "address": "887 9th Ave", "categories": "*Wine Bars*Italian*Pizza"}, {"rating": 4.5, "name": "Piccoli Trattoria", "zip": "11215", "city": "Brooklyn", "coords": {"latitude": 40.6650986895797, "longitude": -73.9864727962952}, "address": "522 6th Ave", "categories": "*Italian"}, {"rating": 4.0, "name": "Giano Restaurant", "zip": "10009", "city": "New York", "coords": {"latitude": 40.7262256596862, "longitude": -73.9840574049125}, "address": "126 E 7th St", "categories": "*Italian"}, {"rating": 4.0, "name": "Il Corallo Trattoria", "zip": "10012", "city": "New York", "coords": {"latitude": 40.7262073, "longitude": -74.0018919}, "address": "176 Prince St", "categories": "*Italian*Pizza"}, {"rating": 4.0, "name": "Uva", "zip": "10075", "city": "New York", "coords": {"latitude": 40.772159576416, "longitude": -73.9555587768555}, "address": "1486 2nd Ave", "categories": "*Italian"}, {"rating": 4.5, "name": "SoleLuna Restaurant", "zip": "11104", "city": "Sunnyside", "coords": {"latitude": 40.7441699, "longitude": -73.92388}, "address": "40-01 Queens Blvd", "categories": "*Cafes*Italian*Breakfast & Brunch"}, {"rating": 4.5, "name": "Spaghetti Incident", "zip": "10002", "city": "New York", "coords": {"latitude": 40.7223153441439, "longitude": -73.9899454318763}, "address": "231 Eldridge St", "categories": "*Italian"}, {"rating": 4.0, "name": "Da Andrea", "zip": "10011", "city": "New York", "coords": {"latitude": 40.736218, "longitude": -73.99597}, "address": "35 W 13th St", "categories": "*Italian"}, {"rating": 4.0, "name": "Pepe Giallo", "zip": "10001", "city": "New York", "coords": {"latitude": 40.748951, "longitude": -74.003617}, "address": "253 10th Ave", "categories": "*Italian"}, {"rating": 4.0, "name": "Pellegrino's Italian Restaurant", "zip": "10013", "city": "New York", "coords": {"latitude": 40.718569457531, "longitude": -73.997608423233}, "address": "138 Mulberry St", "categories": "*Italian"}, {"rating": 4.0, "name": "Manetta's Ristorante", "zip": "11101", "city": "Long Island City", "coords": {"latitude": 40.742681, "longitude": -73.951787}, "address": "1076 Jackson Ave", "categories": "*Italian"}]
