[{"rating": 4.5, "name": "Bub and Pop's", "zip": "20036", "city": "Washington", "coords": {"latitude": 38.906029, "longitude": -77.042368}, "address": "1815 M St NW", "categories": "*Sandwiches"}, {"rating": 4.5, "name": "Beef N Bread", "zip": "20001", "city": "Washington", "coords": {"latitude": 38.8996658325195, "longitude": -77.0202026367188}, "address": "750 6th St NW", "categories": "*Delis*Breakfast & Brunch*Sandwiches"}, {"rating": 4.5, "name": "Mangialardo & Sons", "zip": "20003", "city": "Washington", "coords": {"latitude": 38.880844, "longitude": -76.987749}, "address": "1317 Pennsylvania Ave SE", "categories": "*Sandwiches*Italian"}, {"rating": 4.0, "name": "SUNdeVICH", "zip": "20001", "city": "Washington", "coords": {"latitude": 38.90776373566, "longitude": -77.024359310674}, "address": "1314 9th St NW", "categories": "*Sandwiches"}, {"rating": 4.0, "name": "White Apron Specialty Sandwiches", "zip": "20004", "city": "Washington", "coords": {"latitude": 38.8957126973629, "longitude": -77.0268867626984}, "address": "445 11th St NW", "categories": "*Sandwiches*Fast Food*Soup"}, {"rating": 4.5, "name": "Mother Rucker's Subs", "zip": "20002", "city": "Washington", "coords": {"latitude": 38.9039032, "longitude": -76.9807532}, "address": "1101 Bladensburg Rd NE", "categories": "*Sandwiches"}, {"rating": 4.5, "name": "Neopol Savory Smokery", "zip": "20002", "city": "Washington", "coords": {"latitude": 38.9087806, "longitude": -76.9979685}, "address": "1309 5th St NE", "categories": "*Bakeries*Sandwiches*Seafood"}, {"rating": 4.0, "name": "Fast Gourmet", "zip": "20009", "city": "Washington", "coords": {"latitude": 38.919017791748, "longitude": -77.032356262207}, "address": "1400 W St NW", "categories": "*Latin American*Sandwiches*Burgers"}, {"rating": 4.0, "name": "So's Your Mom", "zip": "20009", "city": "Washington", "coords": {"latitude": 38.92171, "longitude": -77.04383}, "address": "1831 Columbia Rd NW", "categories": "*Delis*Specialty Food*Sandwiches"}, {"rating": 4.5, "name": "Meats & Foods", "zip": "20001", "city": "Washington", "coords": {"latitude": 38.913835, "longitude": -77.015579}, "address": "247 Florida Ave Nw", "categories": "*Sandwiches*Meat Shops"}, {"rating": 4.0, "name": "G Sandwich", "zip": "20009", "city": "Washington", "coords": {"latitude": 38.9193192, "longitude": -77.0315399}, "address": "2201 14th St NW", "categories": "*Sandwiches*Italian"}, {"rating": 5.0, "name": "DC Grill Express", "zip": "20009", "city": "Washington", "coords": {"latitude": 38.916072845459, "longitude": -77.0413818359375}, "address": "1917 18th St NW", "categories": "*American (Traditional)*Burgers*Sandwiches"}, {"rating": 4.0, "name": "Duke's Grocery", "zip": "20036", "city": "Washington", "coords": {"latitude": 38.9101969, "longitude": -77.038134}, "address": "1513 17th St NW", "categories": "*Bars*Sandwiches"}, {"rating": 4.5, "name": "Straw Stick & Brick", "zip": "20011", "city": "Washington", "coords": {"latitude": 38.952339, "longitude": -77.027175}, "address": "5111 Georgia Ave NW", "categories": "*Delis*Sandwiches*Cooking Classes"}, {"rating": 4.5, "name": "Simply Banh Mi", "zip": "20007", "city": "Washington", "coords": {"latitude": 38.911475972879, "longitude": -77.0656122492302}, "address": "1624 Wisconsin Ave NW", "categories": "*Vietnamese*Sandwiches*Halal"}, {"rating": 4.0, "name": "Jetties", "zip": "20007", "city": "Washington", "coords": {"latitude": 38.911227771218, "longitude": -77.083978929927}, "address": "1609 Foxhall Rd NW", "categories": "*Sandwiches*Delis"}, {"rating": 4.5, "name": "MGM Roast Beef", "zip": "20018", "city": "Washington", "coords": {"latitude": 38.9173851, "longitude": -76.9933701}, "address": "905 Brentwood Road NE", "categories": "*Sandwiches"}, {"rating": 4.0, "name": "DCity Smokehouse", "zip": "20001", "city": "Washington", "coords": {"latitude": 38.910887, "longitude": -77.009254}, "address": "8 Florida Ave NW", "categories": "*Barbeque*Sandwiches"}, {"rating": 4.0, "name": "Booeymonger", "zip": "20007", "city": "Washington", "coords": {"latitude": 38.9060835509307, "longitude": -77.0650675656282}, "address": "3256 Prospect St NW", "categories": "*Delis*Sandwiches"}, {"rating": 4.5, "name": "Carl's Foods", "zip": "20050", "city": "Washington", "coords": {"latitude": 38.930584, "longitude": -76.973755}, "address": "2208 Rhode Island Ave NE", "categories": "*Sandwiches"}]
