[{"rating": 4.0, "name": "Toast", "zip": "27701", "city": "Durham", "coords": {"latitude": 35.996428, "longitude": -78.903126}, "address": "345 W Main St", "categories": "*Sandwiches"}, {"rating": 4.0, "name": "Parker & Otis", "zip": "27701", "city": "Durham", "coords": {"latitude": 35.998951, "longitude": -78.9088821}, "address": "112 S Duke St", "categories": "*Specialty Food*Breakfast & Brunch*Sandwiches"}, {"rating": 4.0, "name": "Old Havana Sandwich Shop", "zip": "27701", "city": "Durham", "coords": {"latitude": 35.9932670593262, "longitude": -78.8981323242188}, "address": "310 E Main St", "categories": "*Cuban*Sandwiches"}, {"rating": 4.5, "name": "Rose's Meat Market and Sweet Shop", "zip": "27701", "city": "Durham", "coords": {"latitude": 36.00075, "longitude": -78.90898}, "address": "121 N Gregson St", "categories": "*Desserts*Meat Shops*Sandwiches"}, {"rating": 4.0, "name": "King's Sandwich Shop", "zip": "27701", "city": "Durham", "coords": {"latitude": 36.003891, "longitude": -78.9015808}, "address": "701 Foster St", "categories": "*Sandwiches*Burgers*Hot Dogs"}, {"rating": 4.0, "name": "Nosh", "zip": "27705", "city": "Durham", "coords": {"latitude": 36.007468, "longitude": -78.9472}, "address": "2812 Erwin Rd Ste 101", "categories": "*Burgers*Pizza*Sandwiches"}, {"rating": 3.5, "name": "Hummingbird Bakery", "zip": "27705", "city": "Durham", "coords": {"latitude": 36.0094353865054, "longitude": -78.9197775684172}, "address": "721 Broad St", "categories": "*Bakeries*Sandwiches"}, {"rating": 4.0, "name": "Bull Street Gourmet & Market", "zip": "27707", "city": "Durham", "coords": {"latitude": 35.956193, "longitude": -78.956087}, "address": "3710 Shannon Rd", "categories": "*Sandwiches*Breakfast & Brunch*Salad"}, {"rating": 5.0, "name": "KoKyu Na'Mean", "zip": "27713", "city": "Durham", "coords": {"latitude": 35.8988122370959, "longitude": -78.8949339754335}, "address": "4823 Meadow Dr Ste 108", "categories": "*Barbeque*Sandwiches*Korean"}, {"rating": 4.5, "name": "Dulce Caf\u00e9", "zip": "27713", "city": "Durham", "coords": {"latitude": 35.921447, "longitude": -78.928381}, "address": "5826 Fayetteville Rd Ste 106", "categories": "*Coffee & Tea*Sandwiches*Desserts"}, {"rating": 4.5, "name": "Spicy Green Gourmet", "zip": "27703", "city": "Durham", "coords": {"latitude": 35.9239501953125, "longitude": -78.843879699707}, "address": "2945 S Miami Blvd Ste 126", "categories": "*American (New)*Cafes*Sandwiches"}, {"rating": 4.0, "name": "Saladelia Cafe", "zip": "27707", "city": "Durham", "coords": {"latitude": 35.964611, "longitude": -78.957458}, "address": "4201 University Dr", "categories": "*Mediterranean*Sandwiches*Cafes"}, {"rating": 4.0, "name": "American Meltdown", "zip": 0, "city": "Durham", "coords": {"latitude": 35.995418548584, "longitude": -78.8964385986328}, "address": "", "categories": "*Sandwiches*Food Trucks"}, {"rating": 4.0, "name": "Baguettaboutit", "zip": "27703", "city": "Durham", "coords": {"latitude": 35.9248014348682, "longitude": -78.8441377920655}, "address": "2945 S Miami Blvd Ste 122", "categories": "*Sandwiches*Food Trucks*American (New)"}, {"rating": 4.0, "name": "Firehouse Subs", "zip": "27705", "city": "Durham", "coords": {"latitude": 36.0095482, "longitude": -78.9448776}, "address": "2608 Erwin Rd Ste 128", "categories": "*Sandwiches*Fast Food*Delis"}, {"rating": 4.5, "name": "Cafe Meridian & Catering", "zip": "27713", "city": "Durham", "coords": {"latitude": 35.91144, "longitude": -78.89395}, "address": "2500 Meridian Pkwy Ste 130", "categories": "*American (New)*Sandwiches*Cafes"}, {"rating": 4.5, "name": "Sympathy For the Deli", "zip": "27701", "city": "Durham", "coords": {"latitude": 35.999073, "longitude": -78.9053955}, "address": "610 W Morgan St", "categories": "*Delis*Food Trucks"}, {"rating": 4.5, "name": "Penn Station East Coast Subs", "zip": "27713", "city": "Durham", "coords": {"latitude": 35.9032364, "longitude": -78.9517365}, "address": "8200 Renaissance Pkwy", "categories": "*Sandwiches"}, {"rating": 4.0, "name": "Foster's Market", "zip": "27707", "city": "Durham", "coords": {"latitude": 35.9745864868164, "longitude": -78.9313507080078}, "address": "2694 Durham Chapel Hill Blvd", "categories": "*Breakfast & Brunch*Delis*American (New)"}, {"rating": 4.5, "name": "Golden Pizza & Subs", "zip": "27707", "city": "Durham", "coords": {"latitude": 35.983196, "longitude": -78.931076}, "address": "2300 Chapel Hill Rd", "categories": "*Pizza*Sandwiches"}]
