[{"rating": 4.5, "name": "La Contenta", "zip": "10002", "city": "New York", "coords": {"latitude": 40.71873, "longitude": -73.986907}, "address": "102 Norfolk St", "categories": "*Mexican*Bars*Breakfast & Brunch"}, {"rating": 4.5, "name": "Breakroom", "zip": "10013", "city": "New York", "coords": {"latitude": 40.7166907225542, "longitude": -73.9999440120647}, "address": "83 Baxter St", "categories": "*Burgers*Mexican"}, {"rating": 4.0, "name": "Barrio Chino", "zip": "10002", "city": "New York", "coords": {"latitude": 40.718022, "longitude": -73.990026}, "address": "253 Broome St", "categories": "*Mexican*Bars"}, {"rating": 4.0, "name": "Ponche Taqueria & Cantina", "zip": "10019", "city": "New York", "coords": {"latitude": 40.763084, "longitude": -73.990532}, "address": "420 W 49th St", "categories": "*Mexican"}, {"rating": 4.0, "name": "Ofrenda", "zip": "10014", "city": "New York", "coords": {"latitude": 40.7338905, "longitude": -74.0022507}, "address": "113 7th Ave S", "categories": "*Mexican*Breakfast & Brunch"}, {"rating": 4.0, "name": "Gallitos Kitchen", "zip": "11201", "city": "Brooklyn", "coords": {"latitude": 40.6944006, "longitude": -73.9937447}, "address": "140 Montague St", "categories": "*Mexican"}, {"rating": 4.0, "name": "Casa Enrique", "zip": "11101", "city": "Long Island City", "coords": {"latitude": 40.743404338358, "longitude": -73.954350367693}, "address": "5-48 49th Ave", "categories": "*Mexican"}, {"rating": 4.5, "name": "Don Chingon", "zip": "11217", "city": "Brooklyn", "coords": {"latitude": 40.6810431221494, "longitude": -73.9752403260395}, "address": "216 Flatbush Ave", "categories": "*Mexican*Cocktail Bars*Tex-Mex"}, {"rating": 4.5, "name": "Los Tacos No.1", "zip": "10011", "city": "New York", "coords": {"latitude": 40.742455, "longitude": -74.005956}, "address": "Chelsea Market 75 9th Ave", "categories": "*Mexican"}, {"rating": 4.0, "name": "El Camion", "zip": "10009", "city": "New York", "coords": {"latitude": 40.7290916, "longitude": -73.981041}, "address": "194 Avenue A", "categories": "*Mexican"}, {"rating": 4.0, "name": "Acapulco", "zip": "11222", "city": "Brooklyn", "coords": {"latitude": 40.7367172241211, "longitude": -73.9550018310547}, "address": "1116 Manhattan Ave Ste 2-L", "categories": "*Mexican*Sandwiches"}, {"rating": 4.0, "name": "Casa Agave", "zip": "10036", "city": "New York", "coords": {"latitude": 40.762263, "longitude": -73.990303}, "address": "693 9th Ave", "categories": "*Bars*Mexican"}, {"rating": 4.5, "name": "Chela & Garnacha", "zip": "11106", "city": "Astoria", "coords": {"latitude": 40.7557710260153, "longitude": -73.9279333502054}, "address": "33-09 36th Ave", "categories": "*Mexican*Wine Bars*Gluten-Free"}, {"rating": 4.0, "name": "Mesa Coyoacan", "zip": "11211", "city": "Brooklyn", "coords": {"latitude": 40.715511, "longitude": -73.944275}, "address": "372 Graham Ave", "categories": "*Mexican"}, {"rating": 4.0, "name": "La Loteria", "zip": "10014", "city": "New York", "coords": {"latitude": 40.7307865530978, "longitude": -74.004135953373}, "address": "29 7th Ave S", "categories": "*Mexican"}, {"rating": 4.0, "name": "Cari\u00f1o", "zip": "11211", "city": "Brooklyn", "coords": {"latitude": 40.7124139, "longitude": -73.9648625}, "address": "82 S 4th St", "categories": "*Mexican"}, {"rating": 4.0, "name": "Taqueria Diana", "zip": "10003", "city": "New York", "coords": {"latitude": 40.7284337609976, "longitude": -73.9879844318771}, "address": "129 2nd Ave", "categories": "*Mexican"}, {"rating": 4.0, "name": "Toloache", "zip": "10019", "city": "New York", "coords": {"latitude": 40.762195, "longitude": -73.985606}, "address": "251 W 50th St", "categories": "*Mexican"}, {"rating": 4.0, "name": "Taqueria Tepango", "zip": "11205", "city": "Brooklyn", "coords": {"latitude": 40.6937866, "longitude": -73.9616318}, "address": "568 Myrtle Ave", "categories": "*Mexican"}, {"rating": 4.0, "name": "Taqueria Tehuitzingo", "zip": "10036", "city": "New York", "coords": {"latitude": 40.7581646, "longitude": -73.9928447}, "address": "578 9th Ave", "categories": "*Mexican"}]
