[{"rating": 4.5, "name": "Nana's", "zip": "27707", "city": "Durham", "coords": {"latitude": 35.973934173584, "longitude": -78.9250946044922}, "address": "2514 University Dr", "categories": "*American (New)"}, {"rating": 4.0, "name": "Mateo", "zip": "27701", "city": "Durham", "coords": {"latitude": 35.996719, "longitude": -78.904807}, "address": "109 W Chapel Hill St", "categories": "*Tapas Bars"}, {"rating": 4.0, "name": "The Federal", "zip": "27701", "city": "Durham", "coords": {"latitude": 36.000702197804, "longitude": -78.909943702314}, "address": "914 W Main St", "categories": "*Pubs*American (New)"}, {"rating": 4.0, "name": "Pizzeria Toro", "zip": "27701", "city": "Durham", "coords": {"latitude": 35.9969850629568, "longitude": -78.9036376029253}, "address": "105 E Chapel Hill St", "categories": "*Italian*Pizza"}, {"rating": 4.5, "name": "Heavenly Buffaloes", "zip": "27705", "city": "Durham", "coords": {"latitude": 36.0096702575684, "longitude": -78.9203033447266}, "address": "1807 W Markham Ave", "categories": "*Chicken Wings*Beer, Wine & Spirits*Vegetarian"}, {"rating": 4.0, "name": "Watts Grocery", "zip": "27705", "city": "Durham", "coords": {"latitude": 36.0165367, "longitude": -78.9190521}, "address": "1116 Broad St", "categories": "*American (New)*Breakfast & Brunch"}, {"rating": 4.5, "name": "The Little Dipper", "zip": "27701", "city": "Durham", "coords": {"latitude": 35.9999309, "longitude": -78.910163}, "address": "905 W Main St Ste 21 A", "categories": "*Fondue"}, {"rating": 4.5, "name": "Bar Virgile", "zip": "27701", "city": "Durham", "coords": {"latitude": 35.99467, "longitude": -78.90073}, "address": "105 S Mangum St", "categories": "*Bars*Tapas/Small Plates"}, {"rating": 4.0, "name": "Six Plates", "zip": "27705", "city": "Durham", "coords": {"latitude": 36.0069860210291, "longitude": -78.9477113589015}, "address": "2812 Erwin Rd Ste 104", "categories": "*Tapas Bars*Wine Bars"}, {"rating": 4.0, "name": "Bull City Burger and Brewery", "zip": "27701", "city": "Durham", "coords": {"latitude": 35.9954810142517, "longitude": -78.8999663293362}, "address": "107 E Parrish St", "categories": "*Breweries*Burgers*American (New)"}, {"rating": 4.0, "name": "Dame's Chicken & Waffles", "zip": "27701", "city": "Durham", "coords": {"latitude": 35.996307, "longitude": -78.903374}, "address": "317 W Main St", "categories": "*American (New)"}, {"rating": 4.0, "name": "Vin Rouge", "zip": "27705", "city": "Durham", "coords": {"latitude": 36.0106213373, "longitude": -78.9223137726}, "address": "2010 Hillsborough Rd", "categories": "*French*Breakfast & Brunch"}, {"rating": 4.0, "name": "Alpaca Peruvian Charcoal Chicken", "zip": "27701", "city": "Durham", "coords": {"latitude": 36.018238, "longitude": -78.888425}, "address": "302 Davidson Ave", "categories": "*Latin American*Peruvian*Halal"}, {"rating": 4.0, "name": "Old Havana Sandwich Shop", "zip": "27701", "city": "Durham", "coords": {"latitude": 35.9932670593262, "longitude": -78.8981323242188}, "address": "310 E Main St", "categories": "*Cuban*Sandwiches"}, {"rating": 4.0, "name": "Taberna Tapas", "zip": "27701", "city": "Durham", "coords": {"latitude": 35.9964425861835, "longitude": -78.90326410532}, "address": "325 W Main St", "categories": "*Spanish"}, {"rating": 4.0, "name": "Rue Cler", "zip": "27701", "city": "Durham", "coords": {"latitude": 35.9970358, "longitude": -78.8997553}, "address": "401 E Chapel Hill St", "categories": "*French*Breakfast & Brunch"}, {"rating": 4.0, "name": "Pad Thai", "zip": "27705", "city": "Durham", "coords": {"latitude": 36.0264558345079, "longitude": -78.9227966219187}, "address": "2425 Guess Rd", "categories": "*Thai"}, {"rating": 4.0, "name": "Toast", "zip": "27701", "city": "Durham", "coords": {"latitude": 35.996428, "longitude": -78.903126}, "address": "345 W Main St", "categories": "*Sandwiches"}, {"rating": 4.0, "name": "G2B Restaurant & Brewery", "zip": "27707", "city": "Durham", "coords": {"latitude": 35.9646416, "longitude": -78.9546509}, "address": "3211 Shannon Rd Ste 106", "categories": "*Gastropubs*American (New)"}, {"rating": 3.5, "name": "Geer Street Garden", "zip": "27701", "city": "Durham", "coords": {"latitude": 36.003571, "longitude": -78.901123}, "address": "644 Foster St", "categories": "*American (New)*Bars"}]
