[{"rating": 4.0, "name": "Bandido's Mexican Cafe", "zip": "27514", "city": "Chapel Hill", "coords": {"latitude": 35.9142150878906, "longitude": -79.0539321899414}, "address": "159 E Franklin St", "categories": "*Mexican"}, {"rating": 4.0, "name": "Lucha Tigre", "zip": "27514", "city": "Chapel Hill", "coords": {"latitude": 35.923670232296, "longitude": -79.0546982735395}, "address": "746 Martin Luther King Jr Blvd", "categories": "*Asian Fusion*Mexican"}, {"rating": 3.5, "name": "Monterrey Mexican Restaurant", "zip": "27514", "city": "Chapel Hill", "coords": {"latitude": 35.9322701, "longitude": -79.0276489}, "address": "237 S Elliott Rd", "categories": "*Mexican"}, {"rating": 3.5, "name": "Cinco De Mayo Restaurant and Cantina", "zip": "27514", "city": "Chapel Hill", "coords": {"latitude": 35.9297981, "longitude": -79.033638}, "address": "1502 E Franklin St", "categories": "*Tex-Mex*Mexican"}, {"rating": 4.5, "name": "Fiesta Grill", "zip": "27516", "city": "Chapel Hill", "coords": {"latitude": 35.9224036856924, "longitude": -79.1858000316442}, "address": "3307 NC Hwy 54 W", "categories": "*Mexican"}, {"rating": 3.5, "name": "Los Potrillos", "zip": "27516", "city": "Chapel Hill", "coords": {"latitude": 35.9134750366211, "longitude": -79.0586242675781}, "address": "220 W Rosemary St", "categories": "*Mexican"}, {"rating": 3.5, "name": "La Hacienda", "zip": "27514", "city": "Chapel Hill", "coords": {"latitude": 35.9463096769845, "longitude": -79.0105175971985}, "address": "1813 Fordham Blvd", "categories": "*Mexican"}, {"rating": 4.0, "name": "Cosmic Cantina", "zip": "27514", "city": "Chapel Hill", "coords": {"latitude": 35.91322, "longitude": -79.05463}, "address": "128 E Franklin St", "categories": "*Mexican"}, {"rating": 4.0, "name": "Captain Poncho's Taco Truck", "zip": "27701", "city": "Chapel Hill", "coords": {"latitude": 35.8807273954153, "longitude": -79.0661647170782}, "address": "706 Market St", "categories": "*Mexican*Food Trucks"}, {"rating": 3.0, "name": "Margaret's Cantina", "zip": "27514", "city": "Chapel Hill", "coords": {"latitude": 35.962593, "longitude": -79.053749}, "address": "1129 Weaver Dairy Rd", "categories": "*Mexican"}, {"rating": 3.5, "name": "Guanajuanto Mexican Grill", "zip": "27517", "city": "Chapel Hill", "coords": {"latitude": 35.8497398346663, "longitude": -79.0879630297422}, "address": "11520 US Highway 15 501 N", "categories": "*Mexican"}, {"rating": 4.0, "name": "Carrburritos", "zip": "27510", "city": "Carrboro", "coords": {"latitude": 35.9107684230957, "longitude": -79.0664899349213}, "address": "711 Rosemary St", "categories": "*Mexican"}, {"rating": 4.0, "name": "Monterrey Mexican Restaurant", "zip": "27510", "city": "Carrboro", "coords": {"latitude": 35.9166687275717, "longitude": -79.0946702286601}, "address": "104 Hwy 54 W Unite FF", "categories": "*Mexican"}, {"rating": 3.5, "name": "Chipotle Mexican Grill", "zip": "27516", "city": "Chapel Hill", "coords": {"latitude": 35.9113884, "longitude": -79.0596085}, "address": "301 W Franklin St", "categories": "*Mexican*Fast Food"}, {"rating": 4.5, "name": "Latin Grill", "zip": "27510", "city": "Carrboro", "coords": {"latitude": 35.912989, "longitude": -79.072289}, "address": "355-399 N Greensboro St", "categories": "*Mexican"}, {"rating": 4.0, "name": "Comida Mexicana", "zip": "27510", "city": "Carrboro", "coords": {"latitude": 35.9114118665457, "longitude": -79.076709151268}, "address": "300 W Main St.", "categories": "*Food Stands*Mexican"}, {"rating": 4.0, "name": "El Cuscatleco", "zip": "27707", "city": "Durham", "coords": {"latitude": 35.9602981771456, "longitude": -78.9764588970864}, "address": "4212 Garrett Rd", "categories": "*Mexican*Salvadoran"}, {"rating": 4.0, "name": "Tonali", "zip": "27707", "city": "Durham", "coords": {"latitude": 35.956894, "longitude": -78.955862}, "address": "3642 Shannon Rd Ste 1", "categories": "*Mexican"}, {"rating": 4.0, "name": "Chubby's Tacos", "zip": "27707", "city": "Durham", "coords": {"latitude": 35.9215132575018, "longitude": -78.95586886180931}, "address": "4711 Hope Valley Rd", "categories": "*Mexican"}, {"rating": 4.5, "name": "Tacos Nacos", "zip": "27707", "city": "Durham", "coords": {"latitude": 35.96665, "longitude": -78.945359}, "address": "3411 University Dr", "categories": "*Mexican"}]
