[{"rating": 4.5, "name": "Oiji", "zip": "10003", "city": "New York", "coords": {"latitude": 40.7272606, "longitude": -73.9858398}, "address": "119 1st Ave", "categories": "*Korean"}, {"rating": 4.5, "name": "Her Name Is Han", "zip": "10016", "city": "New York", "coords": {"latitude": 40.7462615966797, "longitude": -73.984733581543}, "address": "17 E 31st St", "categories": "*Korean"}, {"rating": 4.0, "name": "K'OOK", "zip": "10003", "city": "New York", "coords": {"latitude": 40.726699, "longitude": -73.987457}, "address": "324 E 6th St", "categories": "*Korean"}, {"rating": 4.0, "name": "Woorijip Authentic Korean Food", "zip": "10001", "city": "New York", "coords": {"latitude": 40.7473526000977, "longitude": -73.9865493774414}, "address": "12 W 32nd St", "categories": "*Korean"}, {"rating": 4.0, "name": "Kori", "zip": "10013", "city": "New York", "coords": {"latitude": 40.7179238927678, "longitude": -74.0055401190491}, "address": "253 Church St", "categories": "*Korean"}, {"rating": 4.0, "name": "Barn Joo", "zip": "10003", "city": "New York", "coords": {"latitude": 40.7388199, "longitude": -73.99002}, "address": "893 Broadway", "categories": "*Korean*Gastropubs"}, {"rating": 4.0, "name": "Dotory", "zip": "11211", "city": "Brooklyn", "coords": {"latitude": 40.7077639892315, "longitude": -73.9556983116741}, "address": "353 Broadway", "categories": "*Korean"}, {"rating": 4.5, "name": "Jungsik", "zip": "10013", "city": "New York", "coords": {"latitude": 40.7185910158738, "longitude": -74.0088844299316}, "address": "2 Harrison St", "categories": "*Korean"}, {"rating": 4.0, "name": "Bopsot", "zip": "11238", "city": "Brooklyn", "coords": {"latitude": 40.6800270080566, "longitude": -73.9683380126953}, "address": "556 Vanderbilt Ave", "categories": "*Korean"}, {"rating": 4.0, "name": "GunBae", "zip": "10007", "city": "New York", "coords": {"latitude": 40.714683, "longitude": -74.010223}, "address": "67 Murray St", "categories": "*Korean*Karaoke"}, {"rating": 4.0, "name": "Kimchi Grill", "zip": "11238", "city": "Brooklyn", "coords": {"latitude": 40.6750885, "longitude": -73.9634982}, "address": "766 Washington Ave", "categories": "*Mexican*Korean*Barbeque"}, {"rating": 4.0, "name": "Sik Gaek", "zip": "11377", "city": "Woodside", "coords": {"latitude": 40.743485, "longitude": -73.9148356}, "address": "49-11 Roosevelt Ave", "categories": "*Korean*Seafood"}, {"rating": 4.0, "name": "White Tiger", "zip": "11238", "city": "Brooklyn", "coords": {"latitude": 40.6794738769531, "longitude": -73.9678421020508}, "address": "601 Vanderbilt Ave", "categories": "*Korean*Bars"}, {"rating": 4.0, "name": "Goggan", "zip": "10036", "city": "New York", "coords": {"latitude": 40.760545, "longitude": -73.990303}, "address": "364 W 46th St", "categories": "*Korean"}, {"rating": 4.0, "name": "Kimbob", "zip": "11214", "city": "Brooklyn", "coords": {"latitude": 40.605678, "longitude": -73.999496}, "address": "1927 86th St", "categories": "*Korean*Ethnic Food*Asian Fusion"}, {"rating": 4.5, "name": "MaDang", "zip": "10314", "city": "Staten Island", "coords": {"latitude": 40.603122, "longitude": -74.131787}, "address": "330 Bradley Ave", "categories": "*Korean"}, {"rating": 4.0, "name": "Natural Tofu Restaurant", "zip": "11104", "city": "Sunnyside", "coords": {"latitude": 40.7435823976994, "longitude": -73.9240850508213}, "address": "40-06 Queens Blvd", "categories": "*Korean"}, {"rating": 4.0, "name": "Little Dokebi", "zip": "11222", "city": "Brooklyn", "coords": {"latitude": 40.723048, "longitude": -73.942335}, "address": "85 Driggs Ave", "categories": "*Korean"}, {"rating": 4.5, "name": "Bunsmith", "zip": "11238", "city": "Brooklyn", "coords": {"latitude": 40.6718444824219, "longitude": -73.9572525024414}, "address": "789 Franklin Ave", "categories": "*Asian Fusion*Korean"}, {"rating": 3.5, "name": "Cho Dang Gol Korean Restaurant", "zip": "10001", "city": "New York", "coords": {"latitude": 40.7502403, "longitude": -73.9861908}, "address": "55 W 35th St", "categories": "*Korean"}]
