[{"rating": 4.0, "name": "Sandwhich", "zip": "27516", "city": "Chapel Hill", "coords": {"latitude": 35.910881, "longitude": -79.0608292}, "address": "407 W Franklin St", "categories": "*Sandwiches*American (New)"}, {"rating": 4.5, "name": "Merritt's Store & Grill", "zip": "27514", "city": "Chapel Hill", "coords": {"latitude": 35.895513255937, "longitude": -79.0580630823163}, "address": "1009 S Columbia St", "categories": "*Sandwiches*Convenience Stores"}, {"rating": 4.0, "name": "TRU Deli & Wine", "zip": "27514", "city": "Chapel Hill", "coords": {"latitude": 35.9150372, "longitude": -79.053202}, "address": "114 Henderson St", "categories": "*Delis*Sandwiches*Cocktail Bars"}, {"rating": 4.5, "name": "Great Harvest Bread Co", "zip": "27514", "city": "Chapel Hill", "coords": {"latitude": 35.9324591606855, "longitude": -79.0278372913599}, "address": "229 S Elliott Rd", "categories": "*Bakeries*Sandwiches"}, {"rating": 4.0, "name": "Sutton's Drug Store", "zip": "27514", "city": "Chapel Hill", "coords": {"latitude": 35.9142150878906, "longitude": -79.0539321899414}, "address": "159 E Franklin St", "categories": "*Drugstores*Burgers*Sandwiches"}, {"rating": 4.0, "name": "Jersey Mike's Subs", "zip": "27514", "city": "Chapel Hill", "coords": {"latitude": 35.932272, "longitude": -79.027686}, "address": "245 S Elliott Rd Ste A", "categories": "*Sandwiches*Fast Food*Delis"}, {"rating": 4.0, "name": "Firehouse Subs", "zip": "27330", "city": "Chapel Hill", "coords": {"latitude": 35.9057577699423, "longitude": -79.0104304254055}, "address": "603 Meadowmont Village", "categories": "*Sandwiches*Delis*Fast Food"}, {"rating": 3.0, "name": "Cafe Carolina and Bakery", "zip": "27517", "city": "Chapel Hill", "coords": {"latitude": 35.9052186, "longitude": -79.0103335}, "address": "601 Meadowmont Village Cir", "categories": "*Sandwiches"}, {"rating": 3.5, "name": "Bean & Barrel", "zip": "27517", "city": "Chapel Hill", "coords": {"latitude": 35.854348, "longitude": -79.025437}, "address": "50100 Governors Dr", "categories": "*Coffee & Tea*Sandwiches*American (New)"}, {"rating": 4.5, "name": "Sunrise Biscuit Kitchen", "zip": "27514", "city": "Chapel Hill", "coords": {"latitude": 35.92757, "longitude": -79.0355}, "address": "1305 E Franklin St", "categories": "*Breakfast & Brunch"}, {"rating": 4.5, "name": "Neal's Deli", "zip": "27510", "city": "Carrboro", "coords": {"latitude": 35.91019, "longitude": -79.07213}, "address": "100 E Main St Ste C", "categories": "*Delis*Sandwiches"}, {"rating": 4.0, "name": "Jersey Mike's Subs", "zip": "27514", "city": "Chapel Hill", "coords": {"latitude": 35.9663066267967, "longitude": -79.0591467171907}, "address": "1802 Martin Luther King Jr. Boulevard Suite #2", "categories": "*Fast Food*Delis*Sandwiches"}, {"rating": 3.5, "name": "La Vita Dolce", "zip": "27516", "city": "Chapel Hill", "coords": {"latitude": 35.8815144, "longitude": -79.0667442}, "address": "610 Market St Suite 101C", "categories": "*Ice Cream & Frozen Yogurt*Coffee & Tea*Sandwiches"}, {"rating": 3.0, "name": "B SKI'S - The Wrap  Redefined", "zip": "27514", "city": "Chapel Hill", "coords": {"latitude": 35.9138143, "longitude": -79.0542793}, "address": "147 E Franklin St", "categories": "*Fast Food*Sandwiches*American (New)"}, {"rating": 4.0, "name": "Ms. Mong", "zip": "27514", "city": "Chapel Hill", "coords": {"latitude": 35.9140577413184, "longitude": -79.0536218913998}, "address": "163 E Franklin St", "categories": "*Mongolian*Asian Fusion*Barbeque"}, {"rating": 4.5, "name": "Mediterranean Deli", "zip": "27516", "city": "Chapel Hill", "coords": {"latitude": 35.9114799, "longitude": -79.0610504}, "address": "410 W Franklin St", "categories": "*Greek*Mediterranean*Gluten-Free"}, {"rating": 4.0, "name": "Buns", "zip": "27514", "city": "Chapel Hill", "coords": {"latitude": 35.913498068127, "longitude": -79.056107631617}, "address": "107 N Columbia St", "categories": "*Burgers*Hot Dogs"}, {"rating": 4.0, "name": "Artisan Pizza Kitchen", "zip": "27514", "city": "Chapel Hill", "coords": {"latitude": 35.914142, "longitude": -79.054093}, "address": "153 E Franklin St", "categories": "*Pizza*Burgers*Sandwiches"}, {"rating": 2.5, "name": "Jimmy John's", "zip": "27516", "city": "Chapel Hill", "coords": {"latitude": 35.9117889, "longitude": -79.0599136}, "address": "306 W Franklin St Ste C", "categories": "*Sandwiches"}, {"rating": 3.5, "name": "McAlister's Deli", "zip": "27514", "city": "Chapel Hill", "coords": {"latitude": 35.91465, "longitude": -79.0527267}, "address": "205 East Franklin Street", "categories": "*Delis*Salad*Sandwiches"}]
