[{"rating": 4.5, "name": "Pickler & Co", "zip": "10017", "city": "New York", "coords": {"latitude": 40.7520790100098, "longitude": -73.9721755981445}, "address": "216 E 45th St", "categories": "*Delis*Coffee & Tea*Sandwiches"}, {"rating": 4.0, "name": "The Picnic Basket", "zip": "10018", "city": "New York", "coords": {"latitude": 40.7516246, "longitude": -73.9858858}, "address": "65 W 37th St", "categories": "*Cafes*Sandwiches*Breakfast & Brunch"}, {"rating": 4.5, "name": "Hudson Eats At Brookfield Place", "zip": "10281", "city": "New York", "coords": {"latitude": 40.7113181054592, "longitude": -74.0150917321444}, "address": "225 Liberty St 2nd Level", "categories": "*Food Court"}, {"rating": 4.5, "name": "Cheeky Sandwiches", "zip": "10002", "city": "New York", "coords": {"latitude": 40.715801, "longitude": -73.991691}, "address": "35 Orchard St", "categories": "*Sandwiches"}, {"rating": 4.5, "name": "Breakroom", "zip": "10013", "city": "New York", "coords": {"latitude": 40.7166907225542, "longitude": -73.9999440120647}, "address": "83 Baxter St", "categories": "*Burgers*Mexican"}, {"rating": 4.5, "name": "House of Small Wonder", "zip": "11211", "city": "Brooklyn", "coords": {"latitude": 40.71902, "longitude": -73.96089}, "address": "77 N 6th St", "categories": "*Sandwiches*Breakfast & Brunch*Japanese"}, {"rating": 4.5, "name": "Mekelburg's", "zip": "11238", "city": "Brooklyn", "coords": {"latitude": 40.6875419616699, "longitude": -73.9623336791992}, "address": "293 Grand Ave", "categories": "*Specialty Food*Beer, Wine & Spirits*American (New)"}, {"rating": 4.5, "name": "Purbird", "zip": "11217", "city": "Brooklyn", "coords": {"latitude": 40.6799350908205, "longitude": -73.9749217079346}, "address": "82 Sixth Ave", "categories": "*American (New)*American (Traditional)"}, {"rating": 4.5, "name": "Knife", "zip": "11211", "city": "Brooklyn", "coords": {"latitude": 40.709201, "longitude": -73.954151}, "address": "330 S 3rd St", "categories": "*Coffee & Tea*Sandwiches"}, {"rating": 4.0, "name": "Fresh Salt", "zip": "10038", "city": "New York", "coords": {"latitude": 40.70707, "longitude": -74.00244}, "address": "146 Beekman St", "categories": "*Bars*American (New)"}, {"rating": 4.5, "name": "Lamazou", "zip": "10016", "city": "New York", "coords": {"latitude": 40.74125, "longitude": -73.98162}, "address": "370 3rd Ave", "categories": "*Cheese Shops*Sandwiches*Caterers"}, {"rating": 4.0, "name": "Rocket Pig", "zip": "10001", "city": "New York", "coords": {"latitude": 40.747934281826, "longitude": -74.0025658160448}, "address": "463 W 24th St", "categories": "*American (New)"}, {"rating": 4.0, "name": "Bite", "zip": "10003", "city": "New York", "coords": {"latitude": 40.733163, "longitude": -73.986158}, "address": "211 E 14th St", "categories": "*Sandwiches*Salad*Mediterranean"}, {"rating": 4.5, "name": "Nish Nush", "zip": "10013", "city": "New York", "coords": {"latitude": 40.715688, "longitude": -74.007695}, "address": "88 Reade St", "categories": "*Middle Eastern*Vegetarian*Kosher"}, {"rating": 4.5, "name": "Nosh Borough", "zip": "11102", "city": "Astoria", "coords": {"latitude": 40.771237, "longitude": -73.922427}, "address": "25-17 Astoria Blvd", "categories": "*American (Traditional)*Comfort Food"}, {"rating": 4.5, "name": "Ba Xuyen", "zip": "11232", "city": "Brooklyn", "coords": {"latitude": 40.6452789, "longitude": -73.9997101}, "address": "4222 8th Ave", "categories": "*Vietnamese*Sandwiches"}, {"rating": 4.5, "name": "Defontes", "zip": "11231", "city": "Brooklyn", "coords": {"latitude": 40.67868, "longitude": -74.00575}, "address": "379 Columbia St", "categories": "*Sandwiches"}, {"rating": 4.0, "name": "Juniper", "zip": "11211", "city": "Brooklyn", "coords": {"latitude": 40.718925, "longitude": -73.959014}, "address": "112 Berry St", "categories": "*Burgers*American (Traditional)"}, {"rating": 4.5, "name": "The Cinnamon Snail", "zip": "10001", "city": "New York", "coords": {"latitude": 40.7451758849959, "longitude": -74.0304349729087}, "address": "", "categories": "*Vegan*Food Trucks*Mexican"}, {"rating": 4.5, "name": "JoJu", "zip": "11373", "city": "Elmhurst", "coords": {"latitude": 40.74073357663, "longitude": -73.8791788781273}, "address": "83-25 Broadway", "categories": "*Vietnamese*Sandwiches*Bubble Tea"}]
