[{"rating": 4.5, "name": "Sushi Capitol", "zip": "20003", "city": "Washington", "coords": {"latitude": 38.886401, "longitude": -77.001264}, "address": "325 Pennsylvania Ave SE", "categories": "*Japanese*Sushi Bars"}, {"rating": 4.0, "name": "Sushi Taro", "zip": "20036", "city": "Washington", "coords": {"latitude": 38.909847, "longitude": -77.038657}, "address": "1503 17th St NW", "categories": "*Sushi Bars*Japanese"}, {"rating": 4.0, "name": "Kotobuki", "zip": "20007", "city": "Washington", "coords": {"latitude": 38.9168, "longitude": -77.096354}, "address": "4822 MacArthur Blvd NW 2nd Floor", "categories": "*Sushi Bars*Japanese"}, {"rating": 4.0, "name": "Buredo", "zip": "20005", "city": "Washington", "coords": {"latitude": 38.900928, "longitude": -77.0318251}, "address": "825 14th St NW", "categories": "*Sushi Bars*Asian Fusion*Fast Food"}, {"rating": 3.5, "name": "Momiji", "zip": "20001", "city": "Washington", "coords": {"latitude": 38.900118, "longitude": -77.019165}, "address": "505 H St NW", "categories": "*Japanese*Sushi Bars"}, {"rating": 4.0, "name": "Izakaya Seki", "zip": "20009", "city": "Washington", "coords": {"latitude": 38.91832, "longitude": -77.02779}, "address": "1117 V St NW", "categories": "*Japanese"}, {"rating": 4.5, "name": "Raku", "zip": "20016", "city": "Washington", "coords": {"latitude": 38.9336867630482, "longitude": -77.0724673569202}, "address": "3312 Wisconsin Ave NW", "categories": "*Sushi Bars*Asian Fusion"}, {"rating": 4.0, "name": "Nagomi Izakaya", "zip": "20036", "city": "Washington", "coords": {"latitude": 38.9055434369695, "longitude": -77.0442814214264}, "address": "1990 M St NW Ste 100", "categories": "*Japanese*Tapas/Small Plates"}, {"rating": 4.5, "name": "Makoto Restaurant", "zip": "20007", "city": "Washington", "coords": {"latitude": 38.9166946411133, "longitude": -77.0964126586914}, "address": "4822 MacArthur Blvd NW", "categories": "*Japanese"}, {"rating": 4.0, "name": "Maki Shop", "zip": "20005", "city": "Washington", "coords": {"latitude": 38.9105044750871, "longitude": -77.0321743962941}, "address": "1522 14th St NW", "categories": "*Sushi Bars"}, {"rating": 4.0, "name": "I-Thai Restaurant & Sushi Bar", "zip": "20007", "city": "Washington", "coords": {"latitude": 38.9052295, "longitude": -77.0592474}, "address": "3003 M St NW", "categories": "*Thai*Sushi Bars"}, {"rating": 4.0, "name": "Shanghai Tokyo Cafe", "zip": "20010", "city": "Washington", "coords": {"latitude": 38.9304030686617, "longitude": -77.0322362333536}, "address": "1376 Park Rd NW", "categories": "*Japanese*Thai*Cantonese"}, {"rating": 3.5, "name": "Umi Japanese Cuisine", "zip": "20008", "city": "Washington", "coords": {"latitude": 38.924312, "longitude": -77.051483}, "address": "2625 Connecticut Ave", "categories": "*Sushi Bars*Japanese"}, {"rating": 3.5, "name": "Kintaro", "zip": "20007", "city": "Washington", "coords": {"latitude": 38.9047012329102, "longitude": -77.0658569335938}, "address": "1039 33rd St NW", "categories": "*Sushi Bars*Japanese"}, {"rating": 4.0, "name": "Donburi", "zip": "20009", "city": "Washington", "coords": {"latitude": 38.9216156005859, "longitude": -77.0427017211914}, "address": "2438 18th N W", "categories": "*Japanese"}, {"rating": 3.5, "name": "Hikari Sushi & Sake Bar", "zip": "20002", "city": "Washington", "coords": {"latitude": 38.900436, "longitude": -76.996658}, "address": "644 H St NE", "categories": "*Japanese*Sushi Bars"}, {"rating": 4.0, "name": "Nana Thai", "zip": "20003", "city": "Washington", "coords": {"latitude": 38.883255, "longitude": -76.994971}, "address": "406 8th St SE", "categories": "*Thai*Sushi Bars"}, {"rating": 3.5, "name": "Nooshi", "zip": "20036", "city": "Washington", "coords": {"latitude": 38.904626, "longitude": -77.043645}, "address": "1120 19th St NW", "categories": "*Sushi Bars"}, {"rating": 3.5, "name": "Nooshi", "zip": "20003", "city": "Washington", "coords": {"latitude": 38.8818439, "longitude": -76.9947955}, "address": "524 8th St SE", "categories": "*Salad*American (New)*Sushi Bars"}, {"rating": 4.0, "name": "Perry's Restaurant", "zip": "20009", "city": "Washington", "coords": {"latitude": 38.92212, "longitude": -77.04356}, "address": "1811 Columbia Rd Nw", "categories": "*Sushi Bars*Japanese"}]
