[{"rating": 4.5, "name": "Merritt's Store & Grill", "zip": "27514", "city": "Chapel Hill", "coords": {"latitude": 35.895513255937, "longitude": -79.0580630823163}, "address": "1009 S Columbia St", "categories": "*Sandwiches*Convenience Stores"}, {"rating": 4.0, "name": "Sandwhich", "zip": "27516", "city": "Chapel Hill", "coords": {"latitude": 35.910881, "longitude": -79.0608292}, "address": "407 W Franklin St", "categories": "*Sandwiches*American (New)"}, {"rating": 4.5, "name": "Mediterranean Deli", "zip": "27516", "city": "Chapel Hill", "coords": {"latitude": 35.9114799, "longitude": -79.0610504}, "address": "410 W Franklin St", "categories": "*Greek*Mediterranean*Gluten-Free"}, {"rating": 4.5, "name": "Al's Burger Shack", "zip": "27516", "city": "Chapel Hill", "coords": {"latitude": 35.910204, "longitude": -79.0641799}, "address": "516 W Franklin St", "categories": "*Burgers"}, {"rating": 4.0, "name": "Lucha Tigre", "zip": "27514", "city": "Chapel Hill", "coords": {"latitude": 35.923670232296, "longitude": -79.0546982735395}, "address": "746 Martin Luther King Jr Blvd", "categories": "*Asian Fusion*Mexican"}, {"rating": 4.0, "name": "Ms. Mong", "zip": "27514", "city": "Chapel Hill", "coords": {"latitude": 35.9140577413184, "longitude": -79.0536218913998}, "address": "163 E Franklin St", "categories": "*Mongolian*Asian Fusion*Barbeque"}, {"rating": 4.0, "name": "Kitchen", "zip": "27514", "city": "Chapel Hill", "coords": {"latitude": 35.9245796, "longitude": -79.0533829}, "address": "764 Martin Luther King Jr Blvd", "categories": "*French"}, {"rating": 4.0, "name": "Vimala's Curryblossom Cafe", "zip": "27516", "city": "Chapel Hill", "coords": {"latitude": 35.9101181, "longitude": -79.0628433}, "address": "431 W Franklin St", "categories": "*Indian"}, {"rating": 4.0, "name": "TRU Deli & Wine", "zip": "27514", "city": "Chapel Hill", "coords": {"latitude": 35.9150372, "longitude": -79.053202}, "address": "114 Henderson St", "categories": "*Delis*Sandwiches*Cocktail Bars"}, {"rating": 4.0, "name": "Buns", "zip": "27514", "city": "Chapel Hill", "coords": {"latitude": 35.913498068127, "longitude": -79.056107631617}, "address": "107 N Columbia St", "categories": "*Burgers*Hot Dogs"}, {"rating": 4.0, "name": "Sage Caf\u00e9", "zip": "27514", "city": "Chapel Hill", "coords": {"latitude": 35.962579, "longitude": -79.053742}, "address": "1129 Weaver Dairy Rd", "categories": "*Vegetarian*Vegan*Gluten-Free"}, {"rating": 4.0, "name": "The Pig", "zip": "27514", "city": "Chapel Hill", "coords": {"latitude": 35.9623223186114, "longitude": -79.0349154905218}, "address": "630 Weaver Dairy Rd", "categories": "*Barbeque"}, {"rating": 4.0, "name": "Sutton's Drug Store", "zip": "27514", "city": "Chapel Hill", "coords": {"latitude": 35.9142150878906, "longitude": -79.0539321899414}, "address": "159 E Franklin St", "categories": "*Drugstores*Burgers*Sandwiches"}, {"rating": 4.0, "name": "Olio & Aceto Cafe", "zip": "27514", "city": "Chapel Hill", "coords": {"latitude": 35.9314804, "longitude": -79.0264816}, "address": "400 S Elliott Rd", "categories": "*Cafes"}, {"rating": 4.0, "name": "Kipos Greek Taverna", "zip": "27516", "city": "Chapel Hill", "coords": {"latitude": 35.910382, "longitude": -79.062915}, "address": "431 W Franklin St", "categories": "*Greek"}, {"rating": 4.0, "name": "The Root Cellar Cafe and Catering", "zip": "27514", "city": "Chapel Hill", "coords": {"latitude": 35.92436, "longitude": -79.0536}, "address": "750 Mlk Jr Blvd", "categories": "*Breakfast & Brunch*Cafes"}, {"rating": 4.0, "name": "Jujube", "zip": "27517", "city": "Chapel Hill", "coords": {"latitude": 35.908939, "longitude": -79.025382}, "address": "1201 Raleigh Rd Ste L", "categories": "*Asian Fusion"}, {"rating": 4.5, "name": "Kalamaki", "zip": "27516", "city": "Chapel Hill", "coords": {"latitude": 35.9103773, "longitude": -79.0629119}, "address": "431 W Franklin St 120", "categories": "*Greek*Burgers"}, {"rating": 3.5, "name": "Fig & Honey", "zip": "27517", "city": "Chapel Hill", "coords": {"latitude": 35.8318977355957, "longitude": -79.0882263183594}, "address": "141 Chatham Downs Dr Ste 201", "categories": "*Mediterranean*Southern"}, {"rating": 4.5, "name": "Sunrise Biscuit Kitchen", "zip": "27514", "city": "Chapel Hill", "coords": {"latitude": 35.92757, "longitude": -79.0355}, "address": "1305 E Franklin St", "categories": "*Breakfast & Brunch"}]
