[{"rating": 4.0, "name": "Buns", "zip": "27514", "city": "Chapel Hill", "coords": {"latitude": 35.913498068127, "longitude": -79.056107631617}, "address": "107 N Columbia St", "categories": "*Burgers*Hot Dogs"}, {"rating": 4.0, "name": "Linda's Bar and Grill", "zip": "27514", "city": "Chapel Hill", "coords": {"latitude": 35.9145012, "longitude": -79.0527496}, "address": "203 E Franklin St", "categories": "*American (Traditional)*Bars"}, {"rating": 4.5, "name": "Al's Burger Shack", "zip": "27516", "city": "Chapel Hill", "coords": {"latitude": 35.910204, "longitude": -79.0641799}, "address": "516 W Franklin St", "categories": "*Burgers"}, {"rating": 4.5, "name": "Merritt's Store & Grill", "zip": "27514", "city": "Chapel Hill", "coords": {"latitude": 35.895513255937, "longitude": -79.0580630823163}, "address": "1009 S Columbia St", "categories": "*Sandwiches*Convenience Stores"}, {"rating": 4.0, "name": "Italian Pizzeria III", "zip": "27516", "city": "Chapel Hill", "coords": {"latitude": 35.910270690918, "longitude": -79.0640106201172}, "address": "508 W Franklin St", "categories": "*Italian*Pizza"}, {"rating": 4.0, "name": "Sutton's Drug Store", "zip": "27514", "city": "Chapel Hill", "coords": {"latitude": 35.9142150878906, "longitude": -79.0539321899414}, "address": "159 E Franklin St", "categories": "*Drugstores*Burgers*Sandwiches"}, {"rating": 4.0, "name": "Cosmic Cantina", "zip": "27514", "city": "Chapel Hill", "coords": {"latitude": 35.91322, "longitude": -79.05463}, "address": "128 E Franklin St", "categories": "*Mexican"}, {"rating": 4.5, "name": "Sunrise Biscuit Kitchen", "zip": "27514", "city": "Chapel Hill", "coords": {"latitude": 35.92757, "longitude": -79.0355}, "address": "1305 E Franklin St", "categories": "*Breakfast & Brunch"}, {"rating": 4.5, "name": "Mediterranean Deli", "zip": "27516", "city": "Chapel Hill", "coords": {"latitude": 35.9114799, "longitude": -79.0610504}, "address": "410 W Franklin St", "categories": "*Greek*Mediterranean*Gluten-Free"}, {"rating": 4.5, "name": "Toppers Pizza", "zip": "27516", "city": "Chapel Hill", "coords": {"latitude": 35.9120362, "longitude": -79.0599829}, "address": "306 W Franklin St Ste A", "categories": "*Chicken Wings*Pizza"}, {"rating": 4.0, "name": "Cholanad", "zip": "27516", "city": "Chapel Hill", "coords": {"latitude": 35.911746, "longitude": -79.060218}, "address": "308 W Franklin St", "categories": "*Indian*Vegan"}, {"rating": 4.0, "name": "Kitchen", "zip": "27514", "city": "Chapel Hill", "coords": {"latitude": 35.9245796, "longitude": -79.0533829}, "address": "764 Martin Luther King Jr Blvd", "categories": "*French"}, {"rating": 4.0, "name": "Sandwhich", "zip": "27516", "city": "Chapel Hill", "coords": {"latitude": 35.910881, "longitude": -79.0608292}, "address": "407 W Franklin St", "categories": "*Sandwiches*American (New)"}, {"rating": 4.0, "name": "Vimala's Curryblossom Cafe", "zip": "27516", "city": "Chapel Hill", "coords": {"latitude": 35.9101181, "longitude": -79.0628433}, "address": "431 W Franklin St", "categories": "*Indian"}, {"rating": 4.0, "name": "Ms. Mong", "zip": "27514", "city": "Chapel Hill", "coords": {"latitude": 35.9140577413184, "longitude": -79.0536218913998}, "address": "163 E Franklin St", "categories": "*Mongolian*Asian Fusion*Barbeque"}, {"rating": 4.0, "name": "Talullas", "zip": "27516", "city": "Chapel Hill", "coords": {"latitude": 35.91078, "longitude": -79.0627}, "address": "456 W Franklin St", "categories": "*Middle Eastern*Turkish*Mediterranean"}, {"rating": 4.0, "name": "TRU Deli & Wine", "zip": "27514", "city": "Chapel Hill", "coords": {"latitude": 35.9150372, "longitude": -79.053202}, "address": "114 Henderson St", "categories": "*Delis*Sandwiches*Cocktail Bars"}, {"rating": 4.5, "name": "Great Harvest Bread Co", "zip": "27514", "city": "Chapel Hill", "coords": {"latitude": 35.9324591606855, "longitude": -79.0278372913599}, "address": "229 S Elliott Rd", "categories": "*Bakeries*Sandwiches"}, {"rating": 4.0, "name": "Kipos Greek Taverna", "zip": "27516", "city": "Chapel Hill", "coords": {"latitude": 35.910382, "longitude": -79.062915}, "address": "431 W Franklin St", "categories": "*Greek"}, {"rating": 3.5, "name": "Kurama Sushi & Noodle Express", "zip": "27514", "city": "Chapel Hill", "coords": {"latitude": 35.9133517742157, "longitude": -79.0559455007315}, "address": "105 N Columbia St", "categories": "*Sushi Bars*Japanese"}]
