[{"rating": 4.5, "name": "Whiskey Tavern", "zip": "10013", "city": "New York", "coords": {"latitude": 40.716465, "longitude": -73.999687}, "address": "79 Baxter St", "categories": "*Pubs"}, {"rating": 4.0, "name": "The Dead Rabbit", "zip": "10004", "city": "New York", "coords": {"latitude": 40.703297, "longitude": -74.011017}, "address": "30 Water St", "categories": "*Bars*Irish"}, {"rating": 4.0, "name": "The Ship", "zip": "10013", "city": "New York", "coords": {"latitude": 40.7198443, "longitude": -73.99947}, "address": "158 Lafayette St", "categories": "*Cocktail Bars"}, {"rating": 4.5, "name": "Featherweight", "zip": "11206", "city": "Brooklyn", "coords": {"latitude": 40.7063841819763, "longitude": -73.9431119710207}, "address": "135 Graham Ave", "categories": "*Bars"}, {"rating": 4.5, "name": "Ampersand", "zip": "10010", "city": "New York", "coords": {"latitude": 40.7386178790617, "longitude": -73.9834206895483}, "address": "294 3rd Ave", "categories": "*Cocktail Bars*American (New)"}, {"rating": 4.5, "name": "The Pony Bar", "zip": "10036", "city": "New York", "coords": {"latitude": 40.761787, "longitude": -73.994308}, "address": "637 10th Ave", "categories": "*Bars"}, {"rating": 4.5, "name": "Proletariat", "zip": "10009", "city": "New York", "coords": {"latitude": 40.7272506368689, "longitude": -73.9845192432404}, "address": "102 St Marks Pl", "categories": "*Bars"}, {"rating": 4.0, "name": "The Tippler", "zip": "10011", "city": "New York", "coords": {"latitude": 40.7423540864346, "longitude": -74.0063398693085}, "address": "425 W 15th St", "categories": "*Bars"}, {"rating": 4.5, "name": "The Wayland", "zip": "10009", "city": "New York", "coords": {"latitude": 40.7251837849617, "longitude": -73.9778512716293}, "address": "700 E 9th St", "categories": "*Bars"}, {"rating": 4.0, "name": "Dutch Kills", "zip": "11101", "city": "Long Island City", "coords": {"latitude": 40.747615, "longitude": -73.940159}, "address": "27-24 Jackson Ave", "categories": "*Lounges*Cocktail Bars"}, {"rating": 4.5, "name": "Old Man Hustle", "zip": "10002", "city": "New York", "coords": {"latitude": 40.7159819101673, "longitude": -73.9893277618757}, "address": "39 Essex St", "categories": "*Cocktail Bars*Dive Bars*Comedy Clubs"}, {"rating": 5.0, "name": "The Moonlight Mile", "zip": "11222", "city": "Brooklyn", "coords": {"latitude": 40.7321141, "longitude": -73.9578424}, "address": "200 Franklin St", "categories": "*Cocktail Bars"}, {"rating": 4.5, "name": "Pocket Bar NYC", "zip": "10036", "city": "New York", "coords": {"latitude": 40.7633645, "longitude": -73.9922985}, "address": "455 W 48th St", "categories": "*Wine Bars"}, {"rating": 4.0, "name": "Iron Horse NYC", "zip": "10038", "city": "New York", "coords": {"latitude": 40.708137, "longitude": -74.004943}, "address": "32 Cliff St", "categories": "*Dive Bars*Pubs"}, {"rating": 4.5, "name": "Brooklyn Ice House", "zip": "11231", "city": "Brooklyn", "coords": {"latitude": 40.67919, "longitude": -74.011099}, "address": "318 Van Brunt St", "categories": "*Barbeque*Pubs"}, {"rating": 4.5, "name": "Sunny's Bar", "zip": "11231", "city": "Brooklyn", "coords": {"latitude": 40.675591, "longitude": -74.016792}, "address": "253 Conover St", "categories": "*Bars"}, {"rating": 4.5, "name": "Post Office", "zip": "11211", "city": "Brooklyn", "coords": {"latitude": 40.710598, "longitude": -73.9583359}, "address": "188 Havemeyer St", "categories": "*Bars*American (Traditional)"}, {"rating": 5.0, "name": "The Evergreen", "zip": "11207", "city": "Brooklyn", "coords": {"latitude": 40.686016, "longitude": -73.908233}, "address": "109 Moffat St", "categories": "*Pubs"}, {"rating": 4.0, "name": "The Winslow", "zip": "10003", "city": "New York", "coords": {"latitude": 40.732765, "longitude": -73.985222}, "address": "243 E 14th St", "categories": "*Bars"}, {"rating": 4.0, "name": "Apoth\u00e9ke", "zip": "10013", "city": "New York", "coords": {"latitude": 40.714444, "longitude": -73.998162}, "address": "9 Doyers St", "categories": "*Lounges*Cocktail Bars"}]
