[{"rating": 4.5, "name": "Barrel", "zip": "20003", "city": "Washington", "coords": {"latitude": 38.885015, "longitude": -76.9979199}, "address": "613 Pennsylvania Ave SE", "categories": "*American (New)*Cocktail Bars"}, {"rating": 4.0, "name": "The Prospect", "zip": "20009", "city": "Washington", "coords": {"latitude": 38.9167366027832, "longitude": -77.0286560058594}, "address": "1214 U St NW", "categories": "*Sports Bars*American (Traditional)"}, {"rating": 4.0, "name": "City Tap House", "zip": "20001", "city": "Washington", "coords": {"latitude": 38.9011329, "longitude": -77.0236995}, "address": "901 I St NW", "categories": "*Gastropubs*Bars*American (New)"}, {"rating": 4.5, "name": "McClellan's Retreat", "zip": "20009", "city": "Washington", "coords": {"latitude": 38.9143105, "longitude": -77.0465775}, "address": "2031 Florida Ave NW", "categories": "*Bars"}, {"rating": 4.5, "name": "Dram & Grain", "zip": "20009", "city": "Washington", "coords": {"latitude": 38.917397, "longitude": -77.041306}, "address": "2007 18th St NW", "categories": "*Cocktail Bars"}, {"rating": 4.0, "name": "Brick & Mortar", "zip": "20004", "city": "Washington", "coords": {"latitude": 38.8969993591309, "longitude": -77.02490234375}, "address": "918 F St", "categories": "*Cocktail Bars*Pubs*Wine Bars"}, {"rating": 4.5, "name": "Macintyre's", "zip": "20008", "city": "Washington", "coords": {"latitude": 38.9240608, "longitude": -77.0516281}, "address": "2621 Connecticut Ave NW", "categories": "*Sandwiches*Tapas Bars*Pubs"}, {"rating": 4.0, "name": "Red Derby", "zip": "20010", "city": "Washington", "coords": {"latitude": 38.9377212, "longitude": -77.0328196}, "address": "3718 14th St NW", "categories": "*Dive Bars*Breakfast & Brunch*Burgers"}, {"rating": 4.5, "name": "Dew Drop Inn", "zip": "20017", "city": "Washington", "coords": {"latitude": 38.9259796, "longitude": -76.9947128}, "address": "2801 8th St NE", "categories": "*Dive Bars*American (Traditional)"}, {"rating": 4.0, "name": "The Rye Bar", "zip": "20007", "city": "Washington", "coords": {"latitude": 38.90398, "longitude": -77.06147}, "address": "1050 31st NW", "categories": "*American (New)*Cocktail Bars"}, {"rating": 4.0, "name": "Thomas Foolery", "zip": "20036", "city": "Washington", "coords": {"latitude": 38.9098188, "longitude": -77.0462028}, "address": "2029 P St NW", "categories": "*Bars"}, {"rating": 4.0, "name": "Lost & Found", "zip": "20001", "city": "Washington", "coords": {"latitude": 38.906776, "longitude": -77.024276}, "address": "1240 9th St NW", "categories": "*Cocktail Bars"}, {"rating": 4.0, "name": "ChurchKey", "zip": "20005", "city": "Washington", "coords": {"latitude": 38.9084816, "longitude": -77.0314789}, "address": "1337 14th St NW 2nd Fl", "categories": "*American (New)*Lounges"}, {"rating": 4.0, "name": "Old Ebbitt Grill", "zip": "20005", "city": "Washington", "coords": {"latitude": 38.898139, "longitude": -77.033269}, "address": "675 15th St NW", "categories": "*Bars*Breakfast & Brunch*Sandwiches"}, {"rating": 4.0, "name": "Board Room", "zip": "20009", "city": "Washington", "coords": {"latitude": 38.91367, "longitude": -77.045326}, "address": "1737 Connecticut Ave NW", "categories": "*Sports Bars*Lounges"}, {"rating": 4.5, "name": "Jackpot", "zip": "20001", "city": "Washington", "coords": {"latitude": 38.8993232804105, "longitude": -77.0222228765488}, "address": "726 7th St NW", "categories": "*Cocktail Bars"}, {"rating": 4.0, "name": "Boundary Stone", "zip": "20001", "city": "Washington", "coords": {"latitude": 38.915368820068, "longitude": -77.012792823801}, "address": "116 Rhode Island Ave NW", "categories": "*American (New)*Pubs*Sandwiches"}, {"rating": 4.0, "name": "Gypsy Sally's", "zip": "20007", "city": "Washington", "coords": {"latitude": 38.9041329925366, "longitude": -77.0679445744438}, "address": "3401 K St NW", "categories": "*Music Venues*Bars"}, {"rating": 4.0, "name": "All Souls Bar", "zip": "20001", "city": "Washington", "coords": {"latitude": 38.9157506, "longitude": -77.0227059}, "address": "725 T St NW", "categories": "*Bars"}, {"rating": 4.5, "name": "Colony Club", "zip": "20010", "city": "Washington", "coords": {"latitude": 38.929573, "longitude": -77.023719}, "address": "3118 Georgia Ave NW", "categories": "*Coffee & Tea*Cafes*Bars"}]
