[{"rating": 3.5, "name": "Mixed Casual Korean Bistro", "zip": "27514", "city": "Chapel Hill", "coords": {"latitude": 35.9282112, "longitude": -79.0343018}, "address": "1404 E Franklin St", "categories": "*Korean*Asian Fusion"}, {"rating": 3.5, "name": "MinGa", "zip": "27517", "city": "Chapel Hill", "coords": {"latitude": 35.94406, "longitude": -79.01076}, "address": "116 Old Durham Rd", "categories": "*Korean*Japanese"}, {"rating": 5.0, "name": "KoKyu Na'Mean", "zip": "27713", "city": "Durham", "coords": {"latitude": 35.8988122370959, "longitude": -78.8949339754335}, "address": "4823 Meadow Dr Ste 108", "categories": "*Barbeque*Sandwiches*Korean"}, {"rating": 3.5, "name": "Inter Korea House", "zip": "27713", "city": "Durham", "coords": {"latitude": 35.8985088429847, "longitude": -78.898386666255}, "address": "4731 NC Hwy 55", "categories": "*Korean"}, {"rating": 3.5, "name": "Vit Goal Tofu", "zip": "27713", "city": "Durham", "coords": {"latitude": 35.899124, "longitude": -78.895309}, "address": "2107 Allendown Dr Ste 101", "categories": "*Korean"}, {"rating": 3.5, "name": "Chosun Ok", "zip": "27713", "city": "Durham", "coords": {"latitude": 35.90287, "longitude": -78.89471}, "address": "2105 NC 54 E", "categories": "*Korean"}, {"rating": 5.0, "name": "Hanu Truck", "zip": 0, "city": "Durham", "coords": {"latitude": 35.995418548584, "longitude": -78.8964385986328}, "address": "", "categories": "*Food Trucks*Korean"}, {"rating": 3.5, "name": "Oishii", "zip": "27514", "city": "Chapel Hill", "coords": {"latitude": 35.9631805, "longitude": -79.0541382}, "address": "1129 Weaver Dairy Rd Ste M", "categories": "*Sushi Bars*Japanese"}, {"rating": 4.0, "name": "Ms. Mong", "zip": "27514", "city": "Chapel Hill", "coords": {"latitude": 35.9140577413184, "longitude": -79.0536218913998}, "address": "163 E Franklin St", "categories": "*Mongolian*Asian Fusion*Barbeque"}, {"rating": 4.5, "name": "Bulkogi Truck", "zip": "27701", "city": "Durham", "coords": {"latitude": 35.99536, "longitude": -78.90134}, "address": "", "categories": "*Food Trucks*Korean"}, {"rating": 4.0, "name": "Allen & Son Bar-B-Que", "zip": "27516", "city": "Chapel Hill", "coords": {"latitude": 35.9880821406841, "longitude": -79.0745405852795}, "address": "6203 Millhouse Rd", "categories": "*Barbeque"}, {"rating": 4.0, "name": "The Pig", "zip": "27514", "city": "Chapel Hill", "coords": {"latitude": 35.9623223186114, "longitude": -79.0349154905218}, "address": "630 Weaver Dairy Rd", "categories": "*Barbeque"}, {"rating": 4.5, "name": "KoKyu BBQ", "zip": "27701", "city": "Durham", "coords": {"latitude": 35.99857, "longitude": -78.90226}, "address": "", "categories": "*Barbeque*Food Trucks"}, {"rating": 4.0, "name": "Mixed Korean Truck", "zip": "27708", "city": "Durham", "coords": {"latitude": 35.99849, "longitude": -78.93958}, "address": "", "categories": "*Food Trucks*Korean"}, {"rating": 4.0, "name": "Sansui Sushi Bar & Grill", "zip": "27713", "city": "Durham", "coords": {"latitude": 35.911949, "longitude": -78.891991}, "address": "4325 Hwy 55", "categories": "*Sushi Bars*Japanese"}, {"rating": 4.0, "name": "Hog Heaven Bar-B-Q", "zip": "27705", "city": "Durham", "coords": {"latitude": 36.0264249891043, "longitude": -78.922757729888}, "address": "2419 Guess Rd", "categories": "*Barbeque"}]
