[{"rating": 5.0, "name": "Guanajuato Restaurant of Durham", "zip": "27704", "city": "Durham", "coords": {"latitude": 36.0178280324872, "longitude": -78.8902128115296}, "address": "2103 N Roxboro St", "categories": "*Mexican"}, {"rating": 4.0, "name": "Gonza Tacos Y Tequila", "zip": "27701", "city": "Durham", "coords": {"latitude": 36.000178232789, "longitude": -78.9053542166948}, "address": "604 Fernway Ave", "categories": "*Bars*Mexican*Latin American"}, {"rating": 4.0, "name": "Nanataco", "zip": "27707", "city": "Durham", "coords": {"latitude": 35.97417, "longitude": -78.92494}, "address": "2512 University Dr", "categories": "*Mexican"}, {"rating": 4.5, "name": "La Superior Carniceria", "zip": "27704", "city": "Durham", "coords": {"latitude": 36.0339433397368, "longitude": -78.8919607517747}, "address": "3325 N Roxboro St", "categories": "*Mexican"}, {"rating": 4.0, "name": "Taqueria La Vaquita", "zip": "27707", "city": "Durham", "coords": {"latitude": 35.9769096, "longitude": -78.9364624}, "address": "2700 Chapel Hill Rd", "categories": "*Mexican"}, {"rating": 4.5, "name": "Super Taqueria", "zip": "27704", "city": "Durham", "coords": {"latitude": 36.0286131961872, "longitude": -78.8899760827437}, "address": "2842 N Roxboro Rd", "categories": "*Mexican"}, {"rating": 4.5, "name": "Tacos Nacos", "zip": "27707", "city": "Durham", "coords": {"latitude": 35.96665, "longitude": -78.945359}, "address": "3411 University Dr", "categories": "*Mexican"}, {"rating": 4.0, "name": "Tonali", "zip": "27707", "city": "Durham", "coords": {"latitude": 35.956894, "longitude": -78.955862}, "address": "3642 Shannon Rd Ste 1", "categories": "*Mexican"}, {"rating": 3.5, "name": "Dos Perros", "zip": "27701", "city": "Durham", "coords": {"latitude": 35.9957448, "longitude": -78.8999616}, "address": "200 N Mangum St", "categories": "*Mexican"}, {"rating": 4.0, "name": "The Cosmic Cantina", "zip": "27705", "city": "Durham", "coords": {"latitude": 36.007823, "longitude": -78.921852}, "address": "1920 Perry St", "categories": "*Fast Food*Mexican"}, {"rating": 4.0, "name": "El Corral", "zip": "27705", "city": "Durham", "coords": {"latitude": 36.03083, "longitude": -78.936752}, "address": "1821 Hillandale Rd Ste 8", "categories": "*Mexican"}, {"rating": 4.0, "name": "El Cuscatleco", "zip": "27707", "city": "Durham", "coords": {"latitude": 35.9602981771456, "longitude": -78.9764588970864}, "address": "4212 Garrett Rd", "categories": "*Mexican*Salvadoran"}, {"rating": 4.0, "name": "La Vaquita II", "zip": "27705", "city": "Durham", "coords": {"latitude": 36.0192337, "longitude": -78.946373}, "address": "3409 Hillsborough Rd", "categories": "*Mexican"}, {"rating": 4.0, "name": "Chubby's Tacos", "zip": "27705", "city": "Durham", "coords": {"latitude": 36.0092870146036, "longitude": -78.9219899475574}, "address": "748 9th St", "categories": "*Mexican"}, {"rating": 4.0, "name": "Don Marcelo's", "zip": "27705", "city": "Durham", "coords": {"latitude": 36.0064489, "longitude": -78.9481166}, "address": "2816 Erwin Rd", "categories": "*Mexican"}, {"rating": 3.0, "name": "Toreros Mexican Restaurant", "zip": "27701", "city": "Durham", "coords": {"latitude": 35.999641418457, "longitude": -78.908203125}, "address": "800 W Main St", "categories": "*Mexican"}, {"rating": 4.0, "name": "Las Palmas Mexican Restaurant", "zip": "27703", "city": "Durham", "coords": {"latitude": 35.981789, "longitude": -78.820589}, "address": "3801 Wake Forest Rd", "categories": "*Mexican"}, {"rating": 4.0, "name": "Chubby's Tacos", "zip": "27707", "city": "Durham", "coords": {"latitude": 35.9215132575018, "longitude": -78.95586886180931}, "address": "4711 Hope Valley Rd", "categories": "*Mexican"}, {"rating": 3.5, "name": "El Patron Mexican Grill", "zip": "27705", "city": "Durham", "coords": {"latitude": 36.0201324, "longitude": -78.9474148}, "address": "3438 Hillsborough St", "categories": "*Mexican"}, {"rating": 5.0, "name": "Taqueria Mi Pueblo", "zip": "27701", "city": "Durham", "coords": {"latitude": 35.9944550693035, "longitude": -78.8836605101824}, "address": "1000 Holloway St", "categories": "*Mexican"}]
