[{"rating": 4.0, "name": "Lucia Bar Italiano", "zip": "27701", "city": "Durham", "coords": {"latitude": 35.9981651306152, "longitude": -78.9071273803711}, "address": "605 W Main St Ste A", "categories": "*Italian*Bars"}, {"rating": 4.0, "name": "Gocciolina", "zip": "27705", "city": "Durham", "coords": {"latitude": 36.038914, "longitude": -78.928953}, "address": "3314 Guess Rd", "categories": "*Italian*Cocktail Bars"}, {"rating": 4.0, "name": "Melo Trattoria", "zip": "27705", "city": "Durham", "coords": {"latitude": 36.0317917, "longitude": -78.9365997}, "address": "1821 Hillandale Rd Ste 3", "categories": "*Italian*Tapas Bars"}, {"rating": 4.0, "name": "Pizzeria Toro", "zip": "27701", "city": "Durham", "coords": {"latitude": 35.9969850629568, "longitude": -78.9036376029253}, "address": "105 E Chapel Hill St", "categories": "*Italian*Pizza"}, {"rating": 3.5, "name": "The Boot", "zip": "27707", "city": "Durham", "coords": {"latitude": 35.97426, "longitude": -78.92353}, "address": "2501 University Dr", "categories": "*Italian"}, {"rating": 4.0, "name": "Pizza Mia", "zip": "27705", "city": "Durham", "coords": {"latitude": 36.0069555044174, "longitude": -78.946982100606}, "address": "2812 Erwin Rd Ste 103", "categories": "*Italian*Pizza*Sandwiches"}, {"rating": 3.5, "name": "Bocci", "zip": "27713", "city": "Durham", "coords": {"latitude": 35.920090162114995, "longitude": -78.92989403984102}, "address": "5850 Fayetteville Rd", "categories": "*Italian"}, {"rating": 3.5, "name": "Pulcinella", "zip": "27707", "city": "Durham", "coords": {"latitude": 35.9209213256836, "longitude": -78.9564208984375}, "address": "Woodcroft Shopping Center 4711 Hope Valley Rd", "categories": "*Italian*Pizza"}, {"rating": 3.0, "name": "Quattro by Piazza", "zip": "27701", "city": "Durham", "coords": {"latitude": 35.9997607043726, "longitude": -78.9097241907379}, "address": "905 W Main St Ste 18 A", "categories": "*Italian"}, {"rating": 3.0, "name": "Pomodoro Italian Kitchen", "zip": "27705", "city": "Durham", "coords": {"latitude": 36.0294609069824, "longitude": -78.9365463256836}, "address": "1811 Hillandale Rd", "categories": "*Italian"}, {"rating": 3.5, "name": "Maggiano's Little Italy", "zip": "27713", "city": "Durham", "coords": {"latitude": 35.9045696788813, "longitude": -78.9442882294653}, "address": "8030 Renaissance Pkwy", "categories": "*Italian"}, {"rating": 3.0, "name": "Italian Pizzeria Restaurant", "zip": "27705", "city": "Durham", "coords": {"latitude": 36.0580770426154, "longitude": -78.9304066956078}, "address": "3823 Guess Rd", "categories": "*Italian*Pizza"}, {"rating": 3.5, "name": "Carrabba's", "zip": "27707", "city": "Durham", "coords": {"latitude": 35.9549293667078, "longitude": -78.9933172613382}, "address": "5312 New Hope Commons Blvd", "categories": "*Italian*Seafood"}, {"rating": 3.5, "name": "Pop's Backdoor Pizza and Calzones", "zip": "27707", "city": "Durham", "coords": {"latitude": 35.956211, "longitude": -78.956085}, "address": "3710 Shannon Rd", "categories": "*Pizza*Italian"}, {"rating": 4.0, "name": "Devil's Pizzeria", "zip": "27705", "city": "Durham", "coords": {"latitude": 36.0092221, "longitude": -78.9219799}, "address": "742 9th St", "categories": "*Chicken Wings*Cheesesteaks*Italian"}, {"rating": 3.5, "name": "Serena Sicilian Influenced Gastropub", "zip": "27703", "city": "Durham", "coords": {"latitude": 35.8805656433105, "longitude": -78.8496322631836}, "address": "5311 S Miami Blvd Ste A", "categories": "*Italian*Gastropubs"}, {"rating": 3.5, "name": "Noodles & Company", "zip": "27705", "city": "Durham", "coords": {"latitude": 36.0090622619838, "longitude": -78.9444406645208}, "address": "2608 Erwin Rd", "categories": "*Asian Fusion*Comfort Food*Italian"}, {"rating": 3.5, "name": "Italian Pizzeria Restaurant", "zip": "27701", "city": "Durham", "coords": {"latitude": 35.99536, "longitude": -78.90134}, "address": "113 The Village Shopping Ctr", "categories": "*Italian"}, {"rating": 3.5, "name": "Mellow Mushroom", "zip": "27701", "city": "Durham", "coords": {"latitude": 35.9921088069677, "longitude": -78.9050585031509}, "address": "410 Blackwell St", "categories": "*Pizza*Bars*Sandwiches"}, {"rating": 3.5, "name": "Pompieri Pizza", "zip": "27701", "city": "Durham", "coords": {"latitude": 35.995815, "longitude": -78.899651}, "address": "102 City Hall Plz", "categories": "*Pizza*American (New)"}]
