[{"rating": 4.5, "name": "Pickler & Co", "zip": "10017", "city": "New York", "coords": {"latitude": 40.7520790100098, "longitude": -73.9721755981445}, "address": "216 E 45th St", "categories": "*Delis*Coffee & Tea*Sandwiches"}, {"rating": 4.5, "name": "Cheeky Sandwiches", "zip": "10002", "city": "New York", "coords": {"latitude": 40.715801, "longitude": -73.991691}, "address": "35 Orchard St", "categories": "*Sandwiches"}, {"rating": 4.5, "name": "Sal, Kris, & Charlie's Deli", "zip": "11105", "city": "Astoria", "coords": {"latitude": 40.773326878163, "longitude": -73.9113807678223}, "address": "33-12 23rd Ave", "categories": "*Delis*Sandwiches"}, {"rating": 4.5, "name": "Parisi Bakery", "zip": "10012", "city": "New York", "coords": {"latitude": 40.7212334, "longitude": -73.9954147}, "address": "198 Mott St", "categories": "*Bakeries*Sandwiches"}, {"rating": 4.5, "name": "The Picnic Basket", "zip": "10022", "city": "New York", "coords": {"latitude": 40.7555049207092, "longitude": -73.9707579811252}, "address": "805 3rd Ave", "categories": "*Cafes*Sandwiches"}, {"rating": 4.5, "name": "Lamazou", "zip": "10016", "city": "New York", "coords": {"latitude": 40.74125, "longitude": -73.98162}, "address": "370 3rd Ave", "categories": "*Cheese Shops*Sandwiches*Caterers"}, {"rating": 4.5, "name": "Sunny and Annie's", "zip": "10003", "city": "New York", "coords": {"latitude": 40.7245959526307, "longitude": -73.9815849065781}, "address": "94 Ave B", "categories": "*Sandwiches*Delis*Grocery"}, {"rating": 4.5, "name": "Pisillo Italian Panini", "zip": "10038", "city": "New York", "coords": {"latitude": 40.7103869, "longitude": -74.0076009}, "address": "97 Nassau St", "categories": "*Italian*Sandwiches"}, {"rating": 4.5, "name": "Defontes", "zip": "11231", "city": "Brooklyn", "coords": {"latitude": 40.67868, "longitude": -74.00575}, "address": "379 Columbia St", "categories": "*Sandwiches"}, {"rating": 4.5, "name": "Faicco's Italian Specialties", "zip": "10014", "city": "New York", "coords": {"latitude": 40.7311019897461, "longitude": -74.0031661987305}, "address": "260 Bleecker St", "categories": "*Delis*Italian*Sandwiches"}, {"rating": 4.0, "name": "The Picnic Basket", "zip": "10018", "city": "New York", "coords": {"latitude": 40.7516246, "longitude": -73.9858858}, "address": "65 W 37th St", "categories": "*Cafes*Sandwiches*Breakfast & Brunch"}, {"rating": 4.0, "name": "Tiny's Giant Sandwich Shop", "zip": "10002", "city": "New York", "coords": {"latitude": 40.719501, "longitude": -73.986991}, "address": "129 Rivington St", "categories": "*Sandwiches"}, {"rating": 4.5, "name": "Harry & Ida's Meat and Supply Co", "zip": "10009", "city": "New York", "coords": {"latitude": 40.7289886, "longitude": -73.9816895}, "address": "189 Ave A", "categories": "*Sandwiches*Meat Shops"}, {"rating": 5.0, "name": "Court Street Grocers Hero Shop", "zip": "11231", "city": "Brooklyn", "coords": {"latitude": 40.6785889, "longitude": -74.0129471}, "address": "116 Sullivan St", "categories": "*Sandwiches"}, {"rating": 4.0, "name": "Bite", "zip": "10003", "city": "New York", "coords": {"latitude": 40.733163, "longitude": -73.986158}, "address": "211 E 14th St", "categories": "*Sandwiches*Salad*Mediterranean"}, {"rating": 4.0, "name": "Untamed Sandwiches", "zip": "10018", "city": "New York", "coords": {"latitude": 40.7527084350586, "longitude": -73.9843826293945}, "address": "43 W 39th St", "categories": "*Sandwiches*Gluten-Free"}, {"rating": 4.5, "name": "La Panineria", "zip": "11001", "city": "New York", "coords": {"latitude": 40.732538001, "longitude": -73.9968828925}, "address": "1 W 8th St", "categories": "*Italian*Sandwiches*Coffee & Tea"}, {"rating": 4.0, "name": "City Sandwich", "zip": "10036", "city": "New York", "coords": {"latitude": 40.760738, "longitude": -73.991318}, "address": "649 9th Ave", "categories": "*Sandwiches"}, {"rating": 4.0, "name": "Alidoro", "zip": "10012", "city": "New York", "coords": {"latitude": 40.7256546020508, "longitude": -74.0027313232422}, "address": "105 Sullivan St", "categories": "*Specialty Food*Sandwiches"}, {"rating": 4.5, "name": "Xe May Sandwich Shop", "zip": "10009", "city": "New York", "coords": {"latitude": 40.7275325, "longitude": -73.9848195}, "address": "96 Saint Marks Pl", "categories": "*Sandwiches*Vietnamese"}]
