[{"rating": 4.0, "name": "Toast", "zip": "27701", "city": "Durham", "coords": {"latitude": 35.996428, "longitude": -78.903126}, "address": "345 W Main St", "categories": "*Sandwiches"}, {"rating": 4.0, "name": "Parker & Otis", "zip": "27701", "city": "Durham", "coords": {"latitude": 35.998951, "longitude": -78.9088821}, "address": "112 S Duke St", "categories": "*Specialty Food*Breakfast & Brunch*Sandwiches"}, {"rating": 4.0, "name": "Parts & Labor", "zip": "27701", "city": "Durham", "coords": {"latitude": 36.003512, "longitude": -78.9004}, "address": "723 Rigsbee Ave", "categories": "*American (New)"}, {"rating": 4.0, "name": "Old Havana Sandwich Shop", "zip": "27701", "city": "Durham", "coords": {"latitude": 35.9932670593262, "longitude": -78.8981323242188}, "address": "310 E Main St", "categories": "*Cuban*Sandwiches"}, {"rating": 4.0, "name": "Saltbox Seafood Joint", "zip": "27701", "city": "Durham", "coords": {"latitude": 35.999954, "longitude": -78.896088}, "address": "608 N Mangum St", "categories": "*Seafood"}, {"rating": 4.5, "name": "Rose's Meat Market and Sweet Shop", "zip": "27701", "city": "Durham", "coords": {"latitude": 36.00075, "longitude": -78.90898}, "address": "121 N Gregson St", "categories": "*Desserts*Meat Shops*Sandwiches"}, {"rating": 4.0, "name": "Nosh", "zip": "27705", "city": "Durham", "coords": {"latitude": 36.007468, "longitude": -78.9472}, "address": "2812 Erwin Rd Ste 101", "categories": "*Burgers*Pizza*Sandwiches"}, {"rating": 4.0, "name": "Dame's Chicken & Waffles", "zip": "27701", "city": "Durham", "coords": {"latitude": 35.996307, "longitude": -78.903374}, "address": "317 W Main St", "categories": "*American (New)"}, {"rating": 4.0, "name": "Nanataco", "zip": "27707", "city": "Durham", "coords": {"latitude": 35.97417, "longitude": -78.92494}, "address": "2512 University Dr", "categories": "*Mexican"}, {"rating": 4.0, "name": "Bull City Burger and Brewery", "zip": "27701", "city": "Durham", "coords": {"latitude": 35.9954810142517, "longitude": -78.8999663293362}, "address": "107 E Parrish St", "categories": "*Breweries*Burgers*American (New)"}, {"rating": 4.0, "name": "Watts Grocery", "zip": "27705", "city": "Durham", "coords": {"latitude": 36.0165367, "longitude": -78.9190521}, "address": "1116 Broad St", "categories": "*American (New)*Breakfast & Brunch"}, {"rating": 4.0, "name": "Guglhupf Bakery & Patisserie", "zip": "27707", "city": "Durham", "coords": {"latitude": 35.9744816811214, "longitude": -78.932336731708}, "address": "2706 Durham-Chapel Hill Blvd Ste 1", "categories": "*Bakeries*German*Cafes"}, {"rating": 4.5, "name": "Sympathy For the Deli", "zip": "27701", "city": "Durham", "coords": {"latitude": 35.999073, "longitude": -78.9053955}, "address": "610 W Morgan St", "categories": "*Delis*Food Trucks"}, {"rating": 4.0, "name": "The Federal", "zip": "27701", "city": "Durham", "coords": {"latitude": 36.000702197804, "longitude": -78.909943702314}, "address": "914 W Main St", "categories": "*Pubs*American (New)"}, {"rating": 4.0, "name": "Alpaca Peruvian Charcoal Chicken", "zip": "27701", "city": "Durham", "coords": {"latitude": 36.018238, "longitude": -78.888425}, "address": "302 Davidson Ave", "categories": "*Latin American*Peruvian*Halal"}, {"rating": 4.0, "name": "Rue Cler", "zip": "27701", "city": "Durham", "coords": {"latitude": 35.9970358, "longitude": -78.8997553}, "address": "401 E Chapel Hill St", "categories": "*French*Breakfast & Brunch"}, {"rating": 4.0, "name": "The Refectory Cafe", "zip": "27707", "city": "Durham", "coords": {"latitude": 35.974381, "longitude": -78.933032}, "address": "2726 Durham Chapel Hill Blvd", "categories": "*American (New)*Breakfast & Brunch*Modern European"}, {"rating": 4.0, "name": "Luna Rotisserie and Empanadas", "zip": "27701", "city": "Durham", "coords": {"latitude": 35.99552, "longitude": -78.90082}, "address": "112 W Main St", "categories": "*Latin American*Empanadas"}, {"rating": 4.0, "name": "Foster's Market", "zip": "27707", "city": "Durham", "coords": {"latitude": 35.9745864868164, "longitude": -78.9313507080078}, "address": "2694 Durham Chapel Hill Blvd", "categories": "*Breakfast & Brunch*Delis*American (New)"}, {"rating": 5.0, "name": "KoKyu Na'Mean", "zip": "27713", "city": "Durham", "coords": {"latitude": 35.8988122370959, "longitude": -78.8949339754335}, "address": "4823 Meadow Dr Ste 108", "categories": "*Barbeque*Sandwiches*Korean"}]
