[{"rating": 4.0, "name": "Tortino", "zip": "20005", "city": "Washington", "coords": {"latitude": 38.906536, "longitude": -77.027391}, "address": "1228 11th St NW", "categories": "*Italian"}, {"rating": 4.0, "name": "Filomena Ristorante", "zip": "20007", "city": "Washington", "coords": {"latitude": 38.904403, "longitude": -77.062461}, "address": "1063 Wisconsin Ave NW", "categories": "*Italian*Buffets"}, {"rating": 4.0, "name": "il Canale", "zip": "20007", "city": "Washington", "coords": {"latitude": 38.90503, "longitude": -77.06118}, "address": "1065 31st St NW", "categories": "*Italian*Pizza"}, {"rating": 4.5, "name": "Tartufo", "zip": "20016", "city": "Washington", "coords": {"latitude": 38.95381, "longitude": -77.08264}, "address": "4910 Wisconsin Ave NW", "categories": "*Italian"}, {"rating": 4.0, "name": "Tosca", "zip": "20004", "city": "Washington", "coords": {"latitude": 38.8972054, "longitude": -77.027298}, "address": "1112 F St NW", "categories": "*Italian"}, {"rating": 4.5, "name": "Basil Thyme", "zip": "20024", "city": "Washington", "coords": {"latitude": 38.885891, "longitude": -77.0258331}, "address": "L' Enfant Plz", "categories": "*Food Stands*Italian*Food Trucks"}, {"rating": 4.0, "name": "Masseria", "zip": "20002", "city": "Washington", "coords": {"latitude": 38.9096832275391, "longitude": -76.9991455078125}, "address": "1340 4th St  NE", "categories": "*Italian"}, {"rating": 4.0, "name": "Fiola Mare", "zip": "20007", "city": "Washington", "coords": {"latitude": 38.90223, "longitude": -77.060564}, "address": "3050 K St NW Ste 101", "categories": "*Seafood*Italian*Cocktail Bars"}, {"rating": 4.5, "name": "Nonna's Kitchen", "zip": "20009", "city": "Washington", "coords": {"latitude": 38.9167366027832, "longitude": -77.0285797119141}, "address": "1212 U St NW", "categories": "*Italian"}, {"rating": 4.0, "name": "Otello", "zip": "20036", "city": "Washington", "coords": {"latitude": 38.9081382751465, "longitude": -77.042106628418}, "address": "1329 Connecticut Ave NW", "categories": "*Italian"}, {"rating": 4.0, "name": "Acqua Al 2", "zip": "20003", "city": "Washington", "coords": {"latitude": 38.8868532, "longitude": -76.9960346}, "address": "212 7th St SE", "categories": "*Italian"}, {"rating": 4.0, "name": "Casa Luca", "zip": "20001", "city": "Washington", "coords": {"latitude": 38.9014595, "longitude": -77.0266494}, "address": "1099 New York Ave NW", "categories": "*Italian"}, {"rating": 4.0, "name": "Dino's Grotto", "zip": "20001", "city": "Washington", "coords": {"latitude": 38.9160346984863, "longitude": -77.024284362793}, "address": "1914 9th St NW", "categories": "*Italian*Wine Bars"}, {"rating": 4.0, "name": "Maple", "zip": "20010", "city": "Washington", "coords": {"latitude": 38.9323273, "longitude": -77.0284103}, "address": "3418 11th St NW", "categories": "*Wine Bars*Italian"}, {"rating": 4.0, "name": "Osteria Morini", "zip": "20003", "city": "Washington", "coords": {"latitude": 38.8733022086741, "longitude": -77.0013841708283}, "address": "301 Water St SE Ste 109", "categories": "*Italian"}, {"rating": 4.0, "name": "Fiola", "zip": "20004", "city": "Washington", "coords": {"latitude": 38.894039, "longitude": -77.020794}, "address": "601 Pennsylvania Ave NW", "categories": "*Italian"}, {"rating": 4.0, "name": "Siroc Restaurant", "zip": "20005", "city": "Washington", "coords": {"latitude": 38.901821, "longitude": -77.033287}, "address": "915 15th St NW", "categories": "*Italian"}, {"rating": 4.0, "name": "Al Tiramisu", "zip": "20036", "city": "Washington", "coords": {"latitude": 38.9093919, "longitude": -77.04557}, "address": "2014 P St NW", "categories": "*Italian"}, {"rating": 4.0, "name": "The Red Hen", "zip": "20002", "city": "Washington", "coords": {"latitude": 38.9148374, "longitude": -77.0121723}, "address": "1822 1st St NW", "categories": "*Italian"}, {"rating": 4.0, "name": "Floriana", "zip": "20009", "city": "Washington", "coords": {"latitude": 38.91133287092, "longitude": -77.0386550000805}, "address": "1602 17th St NW", "categories": "*Italian"}]
