[{"rating": 4.5, "name": "Taqueria Habanero", "zip": "20010", "city": "Washington", "coords": {"latitude": 38.937553, "longitude": -77.033089}, "address": "3710 14th St NW", "categories": "*Mexican"}, {"rating": 4.0, "name": "District Taco", "zip": "20004", "city": "Washington", "coords": {"latitude": 38.8975982666016, "longitude": -77.030158996582}, "address": "1309 F St NW", "categories": "*Mexican"}, {"rating": 5.0, "name": "El Sol Restaurante", "zip": "20001", "city": "Washington", "coords": {"latitude": 38.9066009521484, "longitude": -77.0266723632812}, "address": "1227 11th St NW", "categories": "*Mexican*Bars"}, {"rating": 5.0, "name": "Rito Loco Restaurant", "zip": "20001", "city": "Washington", "coords": {"latitude": 38.9154669383596, "longitude": -77.0204137265682}, "address": "606 Florida Ave, NW", "categories": "*Mexican*Breakfast & Brunch*Food Trucks"}, {"rating": 4.5, "name": "El Sol Restaurant Y Tequileria", "zip": "20011", "city": "Washington", "coords": {"latitude": 38.9390349, "longitude": -77.03238}, "address": "3911 14th St NW", "categories": "*Mexican"}, {"rating": 4.0, "name": "Tico DC", "zip": "20009", "city": "Washington", "coords": {"latitude": 38.916444, "longitude": -77.032394}, "address": "1926 14th St NW", "categories": "*Mexican*Tapas/Small Plates*Latin American"}, {"rating": 4.0, "name": "Tortilla Cafe", "zip": "20003", "city": "Washington", "coords": {"latitude": 38.88696, "longitude": -76.9958}, "address": "210 7th St SE", "categories": "*Latin American*Mexican"}, {"rating": 3.5, "name": "Oyamel Cocina Mexicana", "zip": "20004", "city": "Washington", "coords": {"latitude": 38.8950996398926, "longitude": -77.0216598510742}, "address": "401 7th St NW", "categories": "*Mexican*Tapas Bars"}, {"rating": 3.5, "name": "El Centro DF - Georgetown", "zip": "20007", "city": "Washington", "coords": {"latitude": 38.905673, "longitude": -77.063243}, "address": "1218 Wisconsin Ave NW", "categories": "*Bars*Mexican"}, {"rating": 3.5, "name": "Lauriol Plaza", "zip": "20009", "city": "Washington", "coords": {"latitude": 38.9152067, "longitude": -77.0415179}, "address": "1835 18th St NW", "categories": "*Mexican*Latin American*Spanish"}, {"rating": 3.5, "name": "El Camino", "zip": "20001", "city": "Washington", "coords": {"latitude": 38.9153136070716, "longitude": -77.0130895823066}, "address": "108 Rhode Island Ave NW", "categories": "*Mexican"}, {"rating": 4.5, "name": "Far East Taco Grille", "zip": "20002", "city": "Washington", "coords": {"latitude": 38.895272, "longitude": -76.983377}, "address": "409 15th St NE", "categories": "*Mexican*Asian Fusion"}, {"rating": 3.5, "name": "Cactus Cantina", "zip": "20016", "city": "Washington", "coords": {"latitude": 38.933609, "longitude": -77.0725479}, "address": "3300 Wisconsin Ave NW", "categories": "*Tex-Mex*Mexican"}, {"rating": 4.0, "name": "El Rinconcito II", "zip": "20009", "city": "Washington", "coords": {"latitude": 38.9305916, "longitude": -77.0306778}, "address": "1326 Park Rd", "categories": "*Latin American*Mexican"}, {"rating": 4.0, "name": "Silvestre Cafe", "zip": "20017", "city": "Washington", "coords": {"latitude": 38.9277382, "longitude": -76.9909592}, "address": "3000 12th St NE", "categories": "*Mexican*Latin American"}, {"rating": 3.5, "name": "MXDC", "zip": "20005", "city": "Washington", "coords": {"latitude": 38.8977520041156, "longitude": -77.0320008656763}, "address": "600 14th St NW", "categories": "*Mexican"}, {"rating": 4.0, "name": "Dulcinea Bar & Grill", "zip": "20001", "city": "Washington", "coords": {"latitude": 38.9248263037729, "longitude": -77.0225235120327}, "address": "2618 Georgia Ave NW", "categories": "*Mexican"}, {"rating": 4.0, "name": "Tacos El Chilango", "zip": "20009", "city": "Washington", "coords": {"latitude": 38.9183867798767, "longitude": -77.0278090846558}, "address": "1119 V St NW", "categories": "*Mexican"}, {"rating": 3.5, "name": "El Centro DF - 14th St", "zip": "20009", "city": "Washington", "coords": {"latitude": 38.9146957397461, "longitude": -77.0315475463867}, "address": "1819 14th St NW", "categories": "*Mexican*Bars"}, {"rating": 3.5, "name": "Impala Cantina", "zip": "20002", "city": "Washington", "coords": {"latitude": 38.9004402, "longitude": -76.9863434}, "address": "1358 H St NE", "categories": "*Mexican"}]
