[{"rating": 4.0, "name": "Kitchen", "zip": "27514", "city": "Chapel Hill", "coords": {"latitude": 35.9245796, "longitude": -79.0533829}, "address": "764 Martin Luther King Jr Blvd", "categories": "*French"}, {"rating": 4.0, "name": "Lantern", "zip": "27516", "city": "Chapel Hill", "coords": {"latitude": 35.9104309, "longitude": -79.0623398}, "address": "423 West Franklin Street", "categories": "*Asian Fusion*Bars*Venues & Event Spaces"}, {"rating": 4.5, "name": "Mediterranean Deli", "zip": "27516", "city": "Chapel Hill", "coords": {"latitude": 35.9114799, "longitude": -79.0610504}, "address": "410 W Franklin St", "categories": "*Greek*Mediterranean*Gluten-Free"}, {"rating": 4.0, "name": "Lucha Tigre", "zip": "27514", "city": "Chapel Hill", "coords": {"latitude": 35.923670232296, "longitude": -79.0546982735395}, "address": "746 Martin Luther King Jr Blvd", "categories": "*Asian Fusion*Mexican"}, {"rating": 4.0, "name": "Jujube", "zip": "27517", "city": "Chapel Hill", "coords": {"latitude": 35.908939, "longitude": -79.025382}, "address": "1201 Raleigh Rd Ste L", "categories": "*Asian Fusion"}, {"rating": 4.0, "name": "Kipos Greek Taverna", "zip": "27516", "city": "Chapel Hill", "coords": {"latitude": 35.910382, "longitude": -79.062915}, "address": "431 W Franklin St", "categories": "*Greek"}, {"rating": 4.5, "name": "Elements", "zip": "27517", "city": "Chapel Hill", "coords": {"latitude": 35.9066505, "longitude": -79.0218048}, "address": "2110 Environ Way", "categories": "*Asian Fusion*American (New)"}, {"rating": 4.0, "name": "Talullas", "zip": "27516", "city": "Chapel Hill", "coords": {"latitude": 35.91078, "longitude": -79.0627}, "address": "456 W Franklin St", "categories": "*Middle Eastern*Turkish*Mediterranean"}, {"rating": 4.0, "name": "Elaine's On Franklin", "zip": "27514", "city": "Chapel Hill", "coords": {"latitude": 35.9108009, "longitude": -79.0626221}, "address": "454 W Franklin St", "categories": "*American (New)"}, {"rating": 4.0, "name": "Vimala's Curryblossom Cafe", "zip": "27516", "city": "Chapel Hill", "coords": {"latitude": 35.9101181, "longitude": -79.0628433}, "address": "431 W Franklin St", "categories": "*Indian"}, {"rating": 3.5, "name": "Crook's Corner", "zip": "27516", "city": "Chapel Hill", "coords": {"latitude": 35.9098396, "longitude": -79.0649719}, "address": "610 W Franklin St", "categories": "*Southern*Breakfast & Brunch"}, {"rating": 4.5, "name": "Tarantini", "zip": "27517", "city": "Chapel Hill", "coords": {"latitude": 35.8540611, "longitude": -79.0248184}, "address": "50160 Governors Dr", "categories": "*Italian"}, {"rating": 4.0, "name": "Linda's Bar and Grill", "zip": "27514", "city": "Chapel Hill", "coords": {"latitude": 35.9145012, "longitude": -79.0527496}, "address": "203 E Franklin St", "categories": "*American (Traditional)*Bars"}, {"rating": 4.0, "name": "Bin 54", "zip": "27517", "city": "Chapel Hill", "coords": {"latitude": 35.909091, "longitude": -79.025241}, "address": "Glen Lennox Shopping Ctr 1201-M Raleigh Rd", "categories": "*Steakhouses"}, {"rating": 4.0, "name": "Raaga", "zip": "27517", "city": "Chapel Hill", "coords": {"latitude": 35.90643, "longitude": -79.021598}, "address": "3140 Environ Way", "categories": "*Indian*Wine Bars"}, {"rating": 4.0, "name": "ONE restaurant", "zip": "27517", "city": "Chapel Hill", "coords": {"latitude": 35.9062062403218, "longitude": -79.0104961395264}, "address": "100 Meadowmont Village Cir Ste 101", "categories": "*American (New)"}, {"rating": 4.0, "name": "Cholanad", "zip": "27516", "city": "Chapel Hill", "coords": {"latitude": 35.911746, "longitude": -79.060218}, "address": "308 W Franklin St", "categories": "*Indian*Vegan"}, {"rating": 3.5, "name": "Top of the Hill Restaurant & Brewery", "zip": "27514", "city": "Chapel Hill", "coords": {"latitude": 35.91305, "longitude": -79.05542}, "address": "100 E Franklin St", "categories": "*American (Traditional)*Breweries"}, {"rating": 4.0, "name": "Buns", "zip": "27514", "city": "Chapel Hill", "coords": {"latitude": 35.913498068127, "longitude": -79.056107631617}, "address": "107 N Columbia St", "categories": "*Burgers*Hot Dogs"}, {"rating": 4.0, "name": "Sage Caf\u00e9", "zip": "27514", "city": "Chapel Hill", "coords": {"latitude": 35.962579, "longitude": -79.053742}, "address": "1129 Weaver Dairy Rd", "categories": "*Vegetarian*Vegan*Gluten-Free"}]
