[{"rating": 4.0, "name": "Founding Farmers", "zip": "20006", "city": "Washington", "coords": {"latitude": 38.9003166398788, "longitude": -77.0446475212375}, "address": "1924 Pennsylvania Ave NW", "categories": "*American (Traditional)"}, {"rating": 4.0, "name": "The Prospect", "zip": "20009", "city": "Washington", "coords": {"latitude": 38.9167366027832, "longitude": -77.0286560058594}, "address": "1214 U St NW", "categories": "*Sports Bars*American (Traditional)"}, {"rating": 4.0, "name": "The Pig", "zip": "20005", "city": "Washington", "coords": {"latitude": 38.907948, "longitude": -77.032372}, "address": "1320 14th St NW", "categories": "*American (Traditional)"}, {"rating": 4.0, "name": "Old Ebbitt Grill", "zip": "20005", "city": "Washington", "coords": {"latitude": 38.898139, "longitude": -77.033269}, "address": "675 15th St NW", "categories": "*Bars*Breakfast & Brunch*Sandwiches"}, {"rating": 4.5, "name": "Barrel", "zip": "20003", "city": "Washington", "coords": {"latitude": 38.885015, "longitude": -76.9979199}, "address": "613 Pennsylvania Ave SE", "categories": "*American (New)*Cocktail Bars"}, {"rating": 4.5, "name": "Rose's Luxury", "zip": "20003", "city": "Washington", "coords": {"latitude": 38.8806381225586, "longitude": -76.9953384399414}, "address": "717 8th St SE", "categories": "*American (New)"}, {"rating": 5.0, "name": "Nido", "zip": "20018", "city": "Washington", "coords": {"latitude": 38.9306602, "longitude": -76.9735718}, "address": "2214 Rhode Island Ave NE", "categories": "*Mediterranean*Bars"}, {"rating": 4.0, "name": "Ambar", "zip": "20003", "city": "Washington", "coords": {"latitude": 38.882022857666, "longitude": -76.9953384399414}, "address": "523 8th St SE", "categories": "*Modern European"}, {"rating": 4.0, "name": "ChurchKey", "zip": "20005", "city": "Washington", "coords": {"latitude": 38.9084816, "longitude": -77.0314789}, "address": "1337 14th St NW 2nd Fl", "categories": "*American (New)*Lounges"}, {"rating": 4.0, "name": "City Tap House", "zip": "20001", "city": "Washington", "coords": {"latitude": 38.9011329, "longitude": -77.0236995}, "address": "901 I St NW", "categories": "*Gastropubs*Bars*American (New)"}, {"rating": 4.0, "name": "Scarlet Oak", "zip": "20003", "city": "Washington", "coords": {"latitude": 38.8784854968547, "longitude": -77.005151848405}, "address": "909 New Jersey Ave SE", "categories": "*American (New)"}, {"rating": 4.0, "name": "il Canale", "zip": "20007", "city": "Washington", "coords": {"latitude": 38.90503, "longitude": -77.06118}, "address": "1065 31st St NW", "categories": "*Italian*Pizza"}, {"rating": 4.5, "name": "The Atlas Room", "zip": "20002", "city": "Washington", "coords": {"latitude": 38.900084, "longitude": -76.992084}, "address": "1015 H St NE", "categories": "*Bars*American (New)"}, {"rating": 4.5, "name": "Bad Saint", "zip": "20010", "city": "Washington", "coords": {"latitude": 38.9302599, "longitude": -77.02812}, "address": "3226 11th St NW", "categories": "*Filipino"}, {"rating": 4.0, "name": "El Chal\u00e1n", "zip": "20006", "city": "Washington", "coords": {"latitude": 38.90114, "longitude": -77.0445699}, "address": "1924 I St NW", "categories": "*Peruvian"}, {"rating": 4.5, "name": "Purple Patch", "zip": "20010", "city": "Washington", "coords": {"latitude": 38.9305308856317, "longitude": -77.0379432430557}, "address": "3155 Mt Pleasant St NW", "categories": "*Filipino"}, {"rating": 4.0, "name": "Compass Rose", "zip": "20009", "city": "Washington", "coords": {"latitude": 38.9154319818375, "longitude": -77.0314902439713}, "address": "1346 T St NW", "categories": "*Mediterranean*Ethnic Food*Gastropubs"}, {"rating": 4.0, "name": "Boundary Stone", "zip": "20001", "city": "Washington", "coords": {"latitude": 38.915368820068, "longitude": -77.012792823801}, "address": "116 Rhode Island Ave NW", "categories": "*American (New)*Pubs*Sandwiches"}, {"rating": 4.0, "name": "The Fainting Goat", "zip": "20009", "city": "Washington", "coords": {"latitude": 38.9169945, "longitude": -77.0309232}, "address": "1330 U St NW", "categories": "*American (New)*Bars"}, {"rating": 4.0, "name": "Bistrot Du Coin", "zip": "20009", "city": "Washington", "coords": {"latitude": 38.913852, "longitude": -77.046112}, "address": "1738 Connecticut Ave NW", "categories": "*French*Belgian"}]
