[{"rating": 4.0, "name": "Koumi Japanese Restaurant", "zip": "27704", "city": "Durham", "coords": {"latitude": 36.036788, "longitude": -78.895225}, "address": "3550 N Roxboro St", "categories": "*Japanese*Sushi Bars"}, {"rating": 4.0, "name": "Sake Bomb", "zip": "27707", "city": "Durham", "coords": {"latitude": 35.9638685875838, "longitude": -78.9582324541985}, "address": "4215 University Dr", "categories": "*Asian Fusion*Sushi Bars"}, {"rating": 3.5, "name": "Basan", "zip": "27701", "city": "Durham", "coords": {"latitude": 35.99272, "longitude": -78.90393}, "address": "359 Blackwell St Ste 220", "categories": "*Japanese*Sushi Bars"}, {"rating": 3.5, "name": "Sushi Love", "zip": "27722", "city": "Durham", "coords": {"latitude": 36.0068953552447, "longitude": -78.9469814300537}, "address": "2812 Erwin Rd Ste 204", "categories": "*Sushi Bars"}, {"rating": 4.0, "name": "Sansui Sushi Bar & Grill", "zip": "27713", "city": "Durham", "coords": {"latitude": 35.911949, "longitude": -78.891991}, "address": "4325 Hwy 55", "categories": "*Sushi Bars*Japanese"}, {"rating": 4.5, "name": "Yamazushi Japanese Cuisine", "zip": "27707", "city": "Durham", "coords": {"latitude": 35.920935, "longitude": -78.956415}, "address": "4711 Hope Valley Rd Ste 6-A", "categories": "*Japanese"}, {"rating": 3.0, "name": "Mount Fuji", "zip": "27701", "city": "Durham", "coords": {"latitude": 35.99993, "longitude": -78.91016}, "address": "Brightleaf Sq 905 W Main St, Ste 21B", "categories": "*Asian Fusion*Sushi Bars"}, {"rating": 3.5, "name": "Shiki Sushi", "zip": "27713", "city": "Durham", "coords": {"latitude": 35.91052511332, "longitude": -78.9379692077637}, "address": "207 W NC Hwy 54", "categories": "*Sushi Bars"}, {"rating": 3.0, "name": "Vine Sushi & Thai", "zip": "27705", "city": "Durham", "coords": {"latitude": 36.0065284975016, "longitude": -78.920499545495}, "address": "607 Broad St", "categories": "*Sushi Bars*Thai*Chinese"}, {"rating": 4.0, "name": "Ai Fuji Japanese Steakhouse", "zip": "27713", "city": "Durham", "coords": {"latitude": 35.9124069213867, "longitude": -78.9362869262695}, "address": "202 W NC Hwy 54", "categories": "*Japanese*Sushi Bars*Steakhouses"}, {"rating": 4.0, "name": "Akashi", "zip": "27713", "city": "Durham", "coords": {"latitude": 35.901699724161, "longitude": -78.8912222534459}, "address": "2223 E Nc 54 Ste RS", "categories": "*Sushi Bars*Japanese*Seafood"}, {"rating": 3.5, "name": "Kurama Japanese Seafood & Steak House Sushi Bar", "zip": "27707", "city": "Durham", "coords": {"latitude": 35.9709211625433, "longitude": -78.9522171020508}, "address": "3644 Chapel Hill Blvd", "categories": "*Japanese*Sushi Bars"}, {"rating": 4.0, "name": "Peony Asian Bistro", "zip": "27707", "city": "Durham", "coords": {"latitude": 35.9511307034642, "longitude": -78.9892044963439}, "address": "3515 Witherspoon Blvd", "categories": "*Chinese*Sushi Bars"}, {"rating": 3.5, "name": "Dashi", "zip": "27701", "city": "Durham", "coords": {"latitude": 35.997097, "longitude": -78.89923}, "address": "415 E Chapel Hill St", "categories": "*Ramen*Tapas/Small Plates"}, {"rating": 3.5, "name": "Ichiban Hibachi Supreme Buffet", "zip": "27704", "city": "Durham", "coords": {"latitude": 36.016449, "longitude": -78.8860092}, "address": "2000 Avondale Dr Ste B1", "categories": "*Japanese*Buffets*Chinese"}, {"rating": 3.5, "name": "Kanki Japanese House of Steaks & Sushi", "zip": "27707", "city": "Durham", "coords": {"latitude": 35.950809, "longitude": -78.994882}, "address": "3504 Mount Moriah Rd", "categories": "*Japanese*Sushi Bars"}, {"rating": 4.0, "name": "Happy China", "zip": "27707", "city": "Durham", "coords": {"latitude": 35.974506, "longitude": -78.925376}, "address": "2505 Durham Chapel Hill Blvd", "categories": "*Chinese"}, {"rating": 3.5, "name": "Thai Caf\u00e9", "zip": "27707", "city": "Durham", "coords": {"latitude": 35.97426, "longitude": -78.92353}, "address": "2501 University Dr", "categories": "*Thai"}, {"rating": 4.0, "name": "Metro 8", "zip": "27705", "city": "Durham", "coords": {"latitude": 36.0093560814857, "longitude": -78.9219865947962}, "address": "746 9th St", "categories": "*Steakhouses"}, {"rating": 3.5, "name": "Tasu", "zip": "27617", "city": "Raleigh", "coords": {"latitude": 35.9008703252451, "longitude": -78.7911987304688}, "address": "8919 Brier Creek Pkwy Ste 109", "categories": "*Sushi Bars*Japanese*Asian Fusion"}]
