[{"rating": 4.0, "name": "The Crunkleton", "zip": "27516", "city": "Chapel Hill", "coords": {"latitude": 35.9112717211246, "longitude": -79.0607888996601}, "address": "320 W Franklin St", "categories": "*Bars"}, {"rating": 4.5, "name": "Beer Study", "zip": "27516", "city": "Chapel Hill", "coords": {"latitude": 35.9100814908743, "longitude": -79.0642603486776}, "address": "106A N Graham St", "categories": "*Beer, Wine & Spirits*Bars"}, {"rating": 4.5, "name": "Zogs Pool", "zip": "27514", "city": "Chapel Hill", "coords": {"latitude": 35.9147987365723, "longitude": -79.0528945922852}, "address": "108 1/2 Henderson St", "categories": "*Pool Halls*Dive Bars"}, {"rating": 4.0, "name": "Linda's Bar and Grill", "zip": "27514", "city": "Chapel Hill", "coords": {"latitude": 35.9145012, "longitude": -79.0527496}, "address": "203 E Franklin St", "categories": "*American (Traditional)*Bars"}, {"rating": 4.5, "name": "Blue Horn Lounge", "zip": "27514", "city": "Chapel Hill", "coords": {"latitude": 35.91354, "longitude": -79.0547592}, "address": "125 E Franklin St", "categories": "*Lounges"}, {"rating": 4.5, "name": "Nightlight Bar & Club", "zip": "27516", "city": "Chapel Hill", "coords": {"latitude": 35.9115935862064, "longitude": -79.0626101195812}, "address": "405 1/2 W Rosemary St", "categories": "*Music Venues*Bars"}, {"rating": 4.0, "name": "Lantern", "zip": "27516", "city": "Chapel Hill", "coords": {"latitude": 35.9104309, "longitude": -79.0623398}, "address": "423 West Franklin Street", "categories": "*Asian Fusion*Bars*Venues & Event Spaces"}, {"rating": 4.0, "name": "Dead Mule Club", "zip": "27516", "city": "Chapel Hill", "coords": {"latitude": 35.9112663269043, "longitude": -79.0597076416016}, "address": "303 W Franklin St", "categories": "*Bars"}, {"rating": 3.5, "name": "Goodfellows", "zip": "27514", "city": "Chapel Hill", "coords": {"latitude": 35.9139170315556, "longitude": -79.0542740900146}, "address": "149 1/2 E Franklin St", "categories": "*Bars"}, {"rating": 3.5, "name": "He's Not Here", "zip": "27516", "city": "Chapel Hill", "coords": {"latitude": 35.9128971397877, "longitude": -79.0566053241491}, "address": "112 W Franklin St", "categories": "*Dive Bars"}, {"rating": 3.5, "name": "Tobacco Road Sports Cafe", "zip": "27517", "city": "Chapel Hill", "coords": {"latitude": 35.9068239, "longitude": -79.0215204}, "address": "1118 Environ Way", "categories": "*American (New)*Sports Bars"}, {"rating": 4.0, "name": "Chapel Hill Underground", "zip": "27514", "city": "Chapel Hill", "coords": {"latitude": 35.9152412, "longitude": -79.0540085}, "address": "157 E Rosemary St", "categories": "*Dive Bars*Pool Halls"}, {"rating": 3.5, "name": "West End Wine Bar", "zip": "27516", "city": "Chapel Hill", "coords": {"latitude": 35.9108505, "longitude": -79.0624771}, "address": "450 W Franklin St", "categories": "*Wine Bars"}, {"rating": 3.5, "name": "Fitzgerald's Irish Pub", "zip": "27516", "city": "Chapel Hill", "coords": {"latitude": 35.912424, "longitude": -79.0588446}, "address": "206 W Franklin St", "categories": "*Sports Bars*Irish*American (Traditional)"}, {"rating": 3.5, "name": "The Cave", "zip": "27516", "city": "Chapel Hill", "coords": {"latitude": 35.910831, "longitude": -79.062553}, "address": "452 1/2 W Franklin S", "categories": "*Bars*Music Venues"}, {"rating": 4.0, "name": "Caff\u00e9 Driade", "zip": "27514", "city": "Chapel Hill", "coords": {"latitude": 35.9254722595215, "longitude": -79.0379943847656}, "address": "1215 E Franklin St Ste A", "categories": "*Coffee & Tea*Wine Bars*Music Venues"}, {"rating": 3.5, "name": "Crossroads Chapel Hill", "zip": "27516", "city": "Chapel Hill", "coords": {"latitude": 35.9095999, "longitude": -79.0546808}, "address": "211 Pittsboro St", "categories": "*American (New)*Breakfast & Brunch*Bars"}, {"rating": 4.0, "name": "The Cellar", "zip": "27516", "city": "Chapel Hill", "coords": {"latitude": 35.9108505, "longitude": -79.0624771}, "address": "450 W Franklin St", "categories": "*Pool Halls*Dive Bars"}, {"rating": 3.5, "name": "Top of the Hill Restaurant & Brewery", "zip": "27514", "city": "Chapel Hill", "coords": {"latitude": 35.91305, "longitude": -79.05542}, "address": "100 E Franklin St", "categories": "*American (Traditional)*Breweries"}, {"rating": 3.5, "name": "Four Corners", "zip": "27514", "city": "Chapel Hill", "coords": {"latitude": 35.9142494, "longitude": -79.05336}, "address": "175 E Franklin St", "categories": "*Sports Bars*American (Traditional)"}]
