[{"rating": 4.0, "name": "Mighty Quinn's Barbeque", "zip": "10003", "city": "New York", "coords": {"latitude": 40.727574, "longitude": -73.988623}, "address": "103 2nd Ave", "categories": "*Barbeque"}, {"rating": 4.0, "name": "Hometown Bar-B-Que", "zip": "11231", "city": "Brooklyn", "coords": {"latitude": 40.674905, "longitude": -74.016127}, "address": "454 Van Brunt St", "categories": "*Barbeque"}, {"rating": 4.0, "name": "Fette Sau", "zip": "11211", "city": "Brooklyn", "coords": {"latitude": 40.714066, "longitude": -73.956327}, "address": "354 Metropolitan Ave", "categories": "*Barbeque"}, {"rating": 4.0, "name": "Mighty Quinn's Barbeque", "zip": "10014", "city": "New York", "coords": {"latitude": 40.7366742117697, "longitude": -74.0013010473027}, "address": "75 Greenwich Ave", "categories": "*Barbeque"}, {"rating": 4.0, "name": "Morgan's Barbecue", "zip": "11217", "city": "Brooklyn", "coords": {"latitude": 40.679879, "longitude": -73.974093}, "address": "267 Flatbush Ave", "categories": "*Barbeque"}, {"rating": 4.0, "name": "Mables Smokehouse & Banquet Hall", "zip": "11211", "city": "Brooklyn", "coords": {"latitude": 40.7211666593633, "longitude": -73.9564526081085}, "address": "44 Berry St", "categories": "*Barbeque*Bars"}, {"rating": 4.0, "name": "Butcher Bar", "zip": "11103", "city": "Astoria", "coords": {"latitude": 40.7643034, "longitude": -73.9163643}, "address": "37-10 30th Ave", "categories": "*Barbeque*Butcher*Pubs"}, {"rating": 4.0, "name": "BrisketTown", "zip": "11211", "city": "Brooklyn", "coords": {"latitude": 40.711479, "longitude": -73.962898}, "address": "359 Bedford Ave", "categories": "*American (Traditional)*Barbeque"}, {"rating": 4.5, "name": "Brooklyn Ice House", "zip": "11231", "city": "Brooklyn", "coords": {"latitude": 40.67919, "longitude": -74.011099}, "address": "318 Van Brunt St", "categories": "*Barbeque*Pubs"}, {"rating": 4.5, "name": "Humo Smokehouse", "zip": "11205", "city": "Brooklyn", "coords": {"latitude": 40.693039, "longitude": -73.973068}, "address": "336 Myrtle Ave", "categories": "*Barbeque"}, {"rating": 3.5, "name": "John Brown Smokehouse", "zip": "11101", "city": "Long Island City", "coords": {"latitude": 40.748905, "longitude": -73.950089}, "address": "10-43 44th Dr", "categories": "*Barbeque*Bars"}, {"rating": 3.5, "name": "Hill Country Barbecue Market", "zip": "10010", "city": "New York", "coords": {"latitude": 40.744022, "longitude": -73.989576}, "address": "30 W 26th St", "categories": "*Barbeque*Southern*Music Venues"}, {"rating": 4.5, "name": "Mighty Quinn's", "zip": "11211", "city": "Brooklyn", "coords": {"latitude": 40.7202546300099, "longitude": -73.9625231217651}, "address": "27 N 6th St Smorgasburg", "categories": "*Barbeque"}, {"rating": 3.5, "name": "Dinosaur Bar-B-Que", "zip": "11215", "city": "Brooklyn", "coords": {"latitude": 40.6776201, "longitude": -73.9838929}, "address": "604 Union St", "categories": "*Barbeque"}, {"rating": 4.0, "name": "Mighty Quinn's Barbeque", "zip": "10281", "city": "New York", "coords": {"latitude": 40.7113181054592, "longitude": -74.0150917321444}, "address": "225 Liberty St", "categories": "*Barbeque"}, {"rating": 4.0, "name": "Pies-n-Thighs", "zip": "11211", "city": "Brooklyn", "coords": {"latitude": 40.711191, "longitude": -73.961424}, "address": "166 S 4th St", "categories": "*Southern*Barbeque*Breakfast & Brunch"}, {"rating": 4.0, "name": "Dinosaur Bar-B-Que", "zip": "10027", "city": "New York", "coords": {"latitude": 40.8179855, "longitude": -73.9605637}, "address": "700 W 125th St", "categories": "*Barbeque"}, {"rating": 4.0, "name": "Northern Bell", "zip": "11211", "city": "Brooklyn", "coords": {"latitude": 40.7138900756836, "longitude": -73.9485473632812}, "address": "612 Metropolitan Ave", "categories": "*Bars*Barbeque*Southern"}, {"rating": 3.5, "name": "The Strand", "zip": "11106", "city": "Astoria", "coords": {"latitude": 40.7629329, "longitude": -73.9273962}, "address": "25-27 Broadway", "categories": "*Barbeque*Pubs*Beer Gardens"}, {"rating": 3.5, "name": "Virgil's Real Barbecue", "zip": "10036", "city": "New York", "coords": {"latitude": 40.75674, "longitude": -73.985176}, "address": "152 W 44th St", "categories": "*Barbeque"}]
