[{"rating": 3.5, "name": "Spicy 9", "zip": "27516", "city": "Chapel Hill", "coords": {"latitude": 35.9125757647247, "longitude": -79.05766960185}, "address": "140 W Franklin St Ste 150", "categories": "*Sushi Bars*Asian Fusion*Thai"}, {"rating": 3.5, "name": "MinGa", "zip": "27517", "city": "Chapel Hill", "coords": {"latitude": 35.94406, "longitude": -79.01076}, "address": "116 Old Durham Rd", "categories": "*Korean*Japanese"}, {"rating": 3.5, "name": "Oishii", "zip": "27514", "city": "Chapel Hill", "coords": {"latitude": 35.9631805, "longitude": -79.0541382}, "address": "1129 Weaver Dairy Rd Ste M", "categories": "*Sushi Bars*Japanese"}, {"rating": 3.5, "name": "Kurama Sushi & Noodle Express", "zip": "27514", "city": "Chapel Hill", "coords": {"latitude": 35.9133517742157, "longitude": -79.0559455007315}, "address": "105 N Columbia St", "categories": "*Sushi Bars*Japanese"}, {"rating": 4.5, "name": "Sushi Nikko", "zip": "27510", "city": "Carrboro", "coords": {"latitude": 35.9163349839055, "longitude": -79.0961551088676}, "address": "104 NC 54 Unit N", "categories": "*Japanese"}, {"rating": 3.5, "name": "Akai Hana Japanese Restaurant", "zip": "27510", "city": "Carrboro", "coords": {"latitude": 35.9104118, "longitude": -79.0754623}, "address": "206 W Main St", "categories": "*Japanese*Sushi Bars"}, {"rating": 4.5, "name": "Yamazushi Japanese Cuisine", "zip": "27707", "city": "Durham", "coords": {"latitude": 35.920935, "longitude": -78.956415}, "address": "4711 Hope Valley Rd Ste 6-A", "categories": "*Japanese"}, {"rating": 4.0, "name": "Lantern", "zip": "27516", "city": "Chapel Hill", "coords": {"latitude": 35.9104309, "longitude": -79.0623398}, "address": "423 West Franklin Street", "categories": "*Asian Fusion*Bars*Venues & Event Spaces"}, {"rating": 4.0, "name": "Sake Bomb", "zip": "27707", "city": "Durham", "coords": {"latitude": 35.9638685875838, "longitude": -78.9582324541985}, "address": "4215 University Dr", "categories": "*Asian Fusion*Sushi Bars"}, {"rating": 3.5, "name": "Shiki Sushi", "zip": "27713", "city": "Durham", "coords": {"latitude": 35.91052511332, "longitude": -78.9379692077637}, "address": "207 W NC Hwy 54", "categories": "*Sushi Bars"}, {"rating": 4.0, "name": "Ai Fuji Japanese Steakhouse", "zip": "27713", "city": "Durham", "coords": {"latitude": 35.9124069213867, "longitude": -78.9362869262695}, "address": "202 W NC Hwy 54", "categories": "*Japanese*Sushi Bars*Steakhouses"}, {"rating": 4.5, "name": "Elements", "zip": "27517", "city": "Chapel Hill", "coords": {"latitude": 35.9066505, "longitude": -79.0218048}, "address": "2110 Environ Way", "categories": "*Asian Fusion*American (New)"}, {"rating": 4.0, "name": "Sansui Sushi Bar & Grill", "zip": "27713", "city": "Durham", "coords": {"latitude": 35.911949, "longitude": -78.891991}, "address": "4325 Hwy 55", "categories": "*Sushi Bars*Japanese"}, {"rating": 3.0, "name": "Japan Express", "zip": "27514", "city": "Chapel Hill", "coords": {"latitude": 35.9322319, "longitude": -79.0276108}, "address": "261 S Elliott Rd", "categories": "*Japanese"}, {"rating": 4.0, "name": "Peony Asian Bistro", "zip": "27707", "city": "Durham", "coords": {"latitude": 35.9511307034642, "longitude": -78.9892044963439}, "address": "3515 Witherspoon Blvd", "categories": "*Chinese*Sushi Bars"}, {"rating": 4.0, "name": "Akashi", "zip": "27713", "city": "Durham", "coords": {"latitude": 35.901699724161, "longitude": -78.8912222534459}, "address": "2223 E Nc 54 Ste RS", "categories": "*Sushi Bars*Japanese*Seafood"}, {"rating": 3.5, "name": "Sushi Love", "zip": "27722", "city": "Durham", "coords": {"latitude": 36.0068953552447, "longitude": -78.9469814300537}, "address": "2812 Erwin Rd Ste 204", "categories": "*Sushi Bars"}, {"rating": 3.5, "name": "Kurama Japanese Seafood & Steak House Sushi Bar", "zip": "27707", "city": "Durham", "coords": {"latitude": 35.9709211625433, "longitude": -78.9522171020508}, "address": "3644 Chapel Hill Blvd", "categories": "*Japanese*Sushi Bars"}, {"rating": 4.0, "name": "Nishiki", "zip": "27519", "city": "Cary", "coords": {"latitude": 35.8488116281022, "longitude": -78.8905661925673}, "address": "1216 Parkside Main St", "categories": "*Asian Fusion*Sushi Bars*Lounges"}, {"rating": 3.0, "name": "Red Bowl Asian Bistro", "zip": "27514", "city": "Chapel Hill", "coords": {"latitude": 35.9257889, "longitude": -79.025589}, "address": "201 S Estes Dr", "categories": "*Asian Fusion"}]
