[{"rating": 4.5, "name": "A Baked Joint", "zip": "20001", "city": "Washington", "coords": {"latitude": 38.9023899290857, "longitude": -77.0167959562465}, "address": "440 K St NW", "categories": "*Coffee & Tea*Breakfast & Brunch*Bakeries"}, {"rating": 4.0, "name": "Wicked Waffle", "zip": "20006", "city": "Washington", "coords": {"latitude": 38.901091, "longitude": -77.040022}, "address": "1712 I St NW", "categories": "*Breakfast & Brunch*Sandwiches*Gluten-Free"}, {"rating": 4.0, "name": "Ted's Bulletin", "zip": "20003", "city": "Washington", "coords": {"latitude": 38.882454, "longitude": -76.995338}, "address": "505 8th St SE", "categories": "*American (New)*Breakfast & Brunch"}, {"rating": 3.5, "name": "Lincoln's Waffle Shop", "zip": "20004", "city": "Washington", "coords": {"latitude": 38.896509, "longitude": -77.026342}, "address": "504 10th St NW", "categories": "*Breakfast & Brunch*American (Traditional)"}, {"rating": 4.5, "name": "Sidamo Coffee and Tea", "zip": "20002", "city": "Washington", "coords": {"latitude": 38.8999443054199, "longitude": -76.9999084472656}, "address": "417 H St NE", "categories": "*Coffee & Tea*Breakfast & Brunch*Sandwiches"}, {"rating": 4.5, "name": "Tony's Breakfast", "zip": "20002", "city": "Washington", "coords": {"latitude": 38.899932, "longitude": -76.985722}, "address": "1387 H St NE", "categories": "*American (Traditional)"}, {"rating": 4.0, "name": "The Blind Dog Cafe", "zip": "20001", "city": "Washington", "coords": {"latitude": 38.9193153381348, "longitude": -77.0252532958984}, "address": "944 Florida Ave", "categories": "*Cafes*Bakeries*Breakfast & Brunch"}, {"rating": 4.0, "name": "Old Ebbitt Grill", "zip": "20005", "city": "Washington", "coords": {"latitude": 38.898139, "longitude": -77.033269}, "address": "675 15th St NW", "categories": "*Bars*Breakfast & Brunch*Sandwiches"}, {"rating": 4.0, "name": "Tabard Inn Restaurant", "zip": "20036", "city": "Washington", "coords": {"latitude": 38.9075203, "longitude": -77.0399933}, "address": "1739 N St NW", "categories": "*American (Traditional)*Breakfast & Brunch"}, {"rating": 4.0, "name": "Market Lunch", "zip": "20003", "city": "Washington", "coords": {"latitude": 38.887001, "longitude": -76.9962845}, "address": "225 7th St SE", "categories": "*American (New)*Breakfast & Brunch"}, {"rating": 4.5, "name": "Beef N Bread", "zip": "20001", "city": "Washington", "coords": {"latitude": 38.8996658325195, "longitude": -77.0202026367188}, "address": "750 6th St NW", "categories": "*Delis*Breakfast & Brunch*Sandwiches"}, {"rating": 4.5, "name": "La Colombe", "zip": "20001", "city": "Washington", "coords": {"latitude": 38.9063683, "longitude": -77.0254288}, "address": "1219 Blagden Alley NW", "categories": "*Cafes*Coffee & Tea"}, {"rating": 4.0, "name": "Ted's Bulletin", "zip": "20009", "city": "Washington", "coords": {"latitude": 38.9140919, "longitude": -77.0319534}, "address": "1818 14th St NW", "categories": "*Breakfast & Brunch*American (New)"}, {"rating": 4.0, "name": "Bread Furst", "zip": "20008", "city": "Washington", "coords": {"latitude": 38.947456, "longitude": -77.065943}, "address": "4434 Connecticut Ave", "categories": "*Bakeries*Coffee & Tea*Breakfast & Brunch"}, {"rating": 4.0, "name": "Founding Farmers", "zip": "20006", "city": "Washington", "coords": {"latitude": 38.9003166398788, "longitude": -77.0446475212375}, "address": "1924 Pennsylvania Ave NW", "categories": "*American (Traditional)"}, {"rating": 4.0, "name": "Cafe Kimchi", "zip": "20003", "city": "Washington", "coords": {"latitude": 38.879565, "longitude": -76.995237}, "address": "751 8th St SE", "categories": "*Korean*Breakfast & Brunch*American (Traditional)"}, {"rating": 4.0, "name": "Red Derby", "zip": "20010", "city": "Washington", "coords": {"latitude": 38.9377212, "longitude": -77.0328196}, "address": "3718 14th St NW", "categories": "*Dive Bars*Breakfast & Brunch*Burgers"}, {"rating": 4.0, "name": "Highlands", "zip": "20011", "city": "Washington", "coords": {"latitude": 38.9475288391113, "longitude": -77.033073425293}, "address": "4706 14th St NW", "categories": "*Coffee & Tea*Breakfast & Brunch*American (Traditional)"}, {"rating": 4.0, "name": "Bagels Etc.", "zip": "20037", "city": "Washington", "coords": {"latitude": 38.90939, "longitude": -77.04762}, "address": "2122 P Street NW", "categories": "*Bagels*Breakfast & Brunch*Sandwiches"}, {"rating": 4.0, "name": "Busboys and Poets", "zip": "20009", "city": "Washington", "coords": {"latitude": 38.9179629102425, "longitude": -77.0317790820735}, "address": "2021 14th St NW", "categories": "*Breakfast & Brunch*Vegan*Coffee & Tea"}]
