[{"rating": 4.5, "name": "La Superior Carniceria", "zip": "27704", "city": "Durham", "coords": {"latitude": 36.0339433397368, "longitude": -78.8919607517747}, "address": "3325 N Roxboro St", "categories": "*Mexican"}, {"rating": 4.0, "name": "Alpaca Peruvian Charcoal Chicken", "zip": "27701", "city": "Durham", "coords": {"latitude": 36.018238, "longitude": -78.888425}, "address": "302 Davidson Ave", "categories": "*Latin American*Peruvian*Halal"}, {"rating": 4.0, "name": "Toast", "zip": "27701", "city": "Durham", "coords": {"latitude": 35.996428, "longitude": -78.903126}, "address": "345 W Main St", "categories": "*Sandwiches"}, {"rating": 4.0, "name": "Banh's Cuisine", "zip": "27705", "city": "Durham", "coords": {"latitude": 36.009449005127, "longitude": -78.9217224121094}, "address": "750 9th St", "categories": "*Vietnamese*Chinese"}, {"rating": 4.0, "name": "Vin Rouge", "zip": "27705", "city": "Durham", "coords": {"latitude": 36.0106213373, "longitude": -78.9223137726}, "address": "2010 Hillsborough Rd", "categories": "*French*Breakfast & Brunch"}, {"rating": 4.5, "name": "Rose's Meat Market and Sweet Shop", "zip": "27701", "city": "Durham", "coords": {"latitude": 36.00075, "longitude": -78.90898}, "address": "121 N Gregson St", "categories": "*Desserts*Meat Shops*Sandwiches"}, {"rating": 4.5, "name": "Heavenly Buffaloes", "zip": "27705", "city": "Durham", "coords": {"latitude": 36.0096702575684, "longitude": -78.9203033447266}, "address": "1807 W Markham Ave", "categories": "*Chicken Wings*Beer, Wine & Spirits*Vegetarian"}, {"rating": 4.0, "name": "Pizzeria Toro", "zip": "27701", "city": "Durham", "coords": {"latitude": 35.9969850629568, "longitude": -78.9036376029253}, "address": "105 E Chapel Hill St", "categories": "*Italian*Pizza"}, {"rating": 4.0, "name": "Parker & Otis", "zip": "27701", "city": "Durham", "coords": {"latitude": 35.998951, "longitude": -78.9088821}, "address": "112 S Duke St", "categories": "*Specialty Food*Breakfast & Brunch*Sandwiches"}, {"rating": 4.5, "name": "Bar Virgile", "zip": "27701", "city": "Durham", "coords": {"latitude": 35.99467, "longitude": -78.90073}, "address": "105 S Mangum St", "categories": "*Bars*Tapas/Small Plates"}, {"rating": 4.0, "name": "Old Havana Sandwich Shop", "zip": "27701", "city": "Durham", "coords": {"latitude": 35.9932670593262, "longitude": -78.8981323242188}, "address": "310 E Main St", "categories": "*Cuban*Sandwiches"}, {"rating": 4.0, "name": "Dame's Chicken & Waffles", "zip": "27701", "city": "Durham", "coords": {"latitude": 35.996307, "longitude": -78.903374}, "address": "317 W Main St", "categories": "*American (New)"}, {"rating": 4.0, "name": "Saltbox Seafood Joint", "zip": "27701", "city": "Durham", "coords": {"latitude": 35.999954, "longitude": -78.896088}, "address": "608 N Mangum St", "categories": "*Seafood"}, {"rating": 4.0, "name": "Mateo", "zip": "27701", "city": "Durham", "coords": {"latitude": 35.996719, "longitude": -78.904807}, "address": "109 W Chapel Hill St", "categories": "*Tapas Bars"}, {"rating": 4.0, "name": "Dain's Place", "zip": "27705", "city": "Durham", "coords": {"latitude": 36.0095596, "longitude": -78.9218674}, "address": "754 9th St", "categories": "*American (Traditional)*Burgers*Bars"}, {"rating": 4.0, "name": "Bull City Burger and Brewery", "zip": "27701", "city": "Durham", "coords": {"latitude": 35.9954810142517, "longitude": -78.8999663293362}, "address": "107 E Parrish St", "categories": "*Breweries*Burgers*American (New)"}, {"rating": 4.0, "name": "Rue Cler", "zip": "27701", "city": "Durham", "coords": {"latitude": 35.9970358, "longitude": -78.8997553}, "address": "401 E Chapel Hill St", "categories": "*French*Breakfast & Brunch"}, {"rating": 4.0, "name": "Nanataco", "zip": "27707", "city": "Durham", "coords": {"latitude": 35.97417, "longitude": -78.92494}, "address": "2512 University Dr", "categories": "*Mexican"}, {"rating": 4.0, "name": "Elmo's Diner", "zip": "27705", "city": "Durham", "coords": {"latitude": 36.010505, "longitude": -78.921646}, "address": "776 9th St", "categories": "*Diners*Breakfast & Brunch"}, {"rating": 4.0, "name": "Loaf", "zip": "27701", "city": "Durham", "coords": {"latitude": 35.9957517, "longitude": -78.9007399}, "address": "111 W Parrish St", "categories": "*Bakeries*Breakfast & Brunch*Farmers Market"}]
