[{"rating": 4.5, "name": "Upstate", "zip": "10003", "city": "New York", "coords": {"latitude": 40.7263139141197, "longitude": -73.9864901976935}, "address": "95 1st Ave", "categories": "*American (New)*Seafood"}, {"rating": 4.5, "name": "Am\u00e9lie", "zip": "10011", "city": "New York", "coords": {"latitude": 40.7326316088438, "longitude": -73.9973643422127}, "address": "22 W 8th St", "categories": "*French*Wine Bars"}, {"rating": 4.5, "name": "Traif", "zip": "11211", "city": "Brooklyn", "coords": {"latitude": 40.710658, "longitude": -73.958872}, "address": "229 S 4th St", "categories": "*American (New)*Tapas/Small Plates"}, {"rating": 4.0, "name": "Bea", "zip": "10036", "city": "New York", "coords": {"latitude": 40.7591968, "longitude": -73.9923361}, "address": "403 W 43rd St", "categories": "*American (New)*Cocktail Bars"}, {"rating": 4.5, "name": "The Greek", "zip": "10013", "city": "New York", "coords": {"latitude": 40.7237145, "longitude": -74.0096166}, "address": "458 Greenwich St", "categories": "*Greek"}, {"rating": 4.0, "name": "Cask Bar + Kitchen", "zip": "10016", "city": "New York", "coords": {"latitude": 40.74536, "longitude": -73.97904}, "address": "167 E 33rd St", "categories": "*American (New)*Cocktail Bars"}, {"rating": 4.5, "name": "Heidi's House", "zip": "10075", "city": "New York", "coords": {"latitude": 40.772189, "longitude": -73.955029}, "address": "308 E 78th St", "categories": "*Comfort Food"}, {"rating": 4.0, "name": "Black Tree", "zip": "10002", "city": "New York", "coords": {"latitude": 40.719761, "longitude": -73.989647}, "address": "131 Orchard St", "categories": "*American (New)"}, {"rating": 4.0, "name": "The Little Owl", "zip": "10014", "city": "New York", "coords": {"latitude": 40.7323808291402, "longitude": -74.0053009986877}, "address": "90 Bedford St", "categories": "*American (New)"}, {"rating": 4.5, "name": "Lulu & Po", "zip": "11205", "city": "Brooklyn", "coords": {"latitude": 40.6929658, "longitude": -73.9729661}, "address": "154 Carlton Ave", "categories": "*American (New)"}, {"rating": 4.5, "name": "Brooklyn Beet Company", "zip": "11209", "city": "Brooklyn", "coords": {"latitude": 40.6333416, "longitude": -74.0268741}, "address": "7205 3rd Ave", "categories": "*Modern European"}, {"rating": 4.0, "name": "Ichabod's", "zip": "10003", "city": "New York", "coords": {"latitude": 40.7348034779301, "longitude": -73.9883648628205}, "address": "15 Irving Pl", "categories": "*American (New)"}, {"rating": 4.0, "name": "Salt & Fat", "zip": "11104", "city": "Sunnyside", "coords": {"latitude": 40.7433262379521, "longitude": -73.9229228052811}, "address": "41-16 Queens Blvd", "categories": "*American (New)*Asian Fusion"}, {"rating": 4.0, "name": "Trading Post", "zip": "10038", "city": "New York", "coords": {"latitude": 40.7059604, "longitude": -74.0041871}, "address": "170 John St", "categories": "*Bars*American (New)"}, {"rating": 4.0, "name": "Pio Pio 8", "zip": "10036", "city": "New York", "coords": {"latitude": 40.760506289326, "longitude": -73.994564488901}, "address": "604 10th Ave", "categories": "*Latin American*Peruvian"}, {"rating": 4.5, "name": "Caffe dei Fiori", "zip": "10021", "city": "New York", "coords": {"latitude": 40.769341, "longitude": -73.9627}, "address": "973 Lexington Ave", "categories": "*Italian"}, {"rating": 4.5, "name": "The Saint Austere", "zip": "11211", "city": "Brooklyn", "coords": {"latitude": 40.7114604, "longitude": -73.9476182}, "address": "613 Grand St", "categories": "*Tapas Bars*Italian"}, {"rating": 4.5, "name": "kiki's", "zip": "10002", "city": "New York", "coords": {"latitude": 40.7144971858255, "longitude": -73.9918553931336}, "address": "130 Division St", "categories": "*Greek"}, {"rating": 4.0, "name": "Grindhaus", "zip": "11231", "city": "New York", "coords": {"latitude": 40.679115, "longitude": -74.010459}, "address": "275 Van Brunt St", "categories": "*American (New)"}, {"rating": 4.0, "name": "The Good Fork", "zip": "11231", "city": "Brooklyn", "coords": {"latitude": 40.6759147644043, "longitude": -74.0142135620117}, "address": "391 Van Brunt St", "categories": "*American (New)"}]
