[{"rating": 4.5, "name": "Best Bagel and Coffee", "zip": "10018", "city": "New York", "coords": {"latitude": 40.7522812, "longitude": -73.9910202}, "address": "225 W 35th St", "categories": "*Bagels*Coffee & Tea*Breakfast & Brunch"}, {"rating": 4.5, "name": "Ana & Sophie's", "zip": "11201", "city": "Brooklyn", "coords": {"latitude": 40.6873398, "longitude": -73.9939194}, "address": "194 Court St", "categories": "*Cafes*Breakfast & Brunch*Sandwiches"}, {"rating": 4.0, "name": "Friedman's", "zip": "10001", "city": "New York", "coords": {"latitude": 40.748297, "longitude": -73.990649}, "address": "132 W 31st St", "categories": "*American (New)*Gluten-Free*Breakfast & Brunch"}, {"rating": 4.5, "name": "House of Small Wonder", "zip": "11211", "city": "Brooklyn", "coords": {"latitude": 40.71902, "longitude": -73.96089}, "address": "77 N 6th St", "categories": "*Sandwiches*Breakfast & Brunch*Japanese"}, {"rating": 4.0, "name": "Johny's Luncheonette", "zip": "10001", "city": "New York", "coords": {"latitude": 40.744445, "longitude": -73.993072}, "address": "124 W 25th St", "categories": "*American (Traditional)*Diners*Breakfast & Brunch"}, {"rating": 4.5, "name": "BeeHive Oven Biscuit Cafe", "zip": "11211", "city": "Brooklyn", "coords": {"latitude": 40.7125678, "longitude": -73.9604523}, "address": "182 S 2nd St", "categories": "*Southern*Cajun/Creole*Breakfast & Brunch"}, {"rating": 4.5, "name": "The Cinnamon Snail", "zip": "10001", "city": "New York", "coords": {"latitude": 40.7451758849959, "longitude": -74.0304349729087}, "address": "", "categories": "*Vegan*Food Trucks*Mexican"}, {"rating": 4.0, "name": "Clinton Street Baking Company", "zip": "10002", "city": "New York", "coords": {"latitude": 40.721128, "longitude": -73.983933}, "address": "4 Clinton St", "categories": "*Breakfast & Brunch"}, {"rating": 4.0, "name": "MUD", "zip": "10003", "city": "New York", "coords": {"latitude": 40.7291469, "longitude": -73.9868096}, "address": "307 E 9th St", "categories": "*Coffee & Tea*Breakfast & Brunch"}, {"rating": 4.0, "name": "Bluestone Lane Coffee", "zip": "10004", "city": "New York", "coords": {"latitude": 40.7061119, "longitude": -74.0115345}, "address": "30 Broad St", "categories": "*Cafes"}, {"rating": 4.5, "name": "C&B", "zip": "10009", "city": "New York", "coords": {"latitude": 40.7252271901335, "longitude": -73.9816302970189}, "address": "178 E 7th St", "categories": "*Coffee & Tea*Breakfast & Brunch"}, {"rating": 4.5, "name": "51st Bakery and Cafe", "zip": "11101", "city": "Long Island City", "coords": {"latitude": 40.742431, "longitude": -73.955288}, "address": "5-33 51st Ave", "categories": "*Bakeries*Breakfast & Brunch*Cafes"}, {"rating": 4.5, "name": "Roots Caf\u00e9", "zip": "11215", "city": "Brooklyn", "coords": {"latitude": 40.662904, "longitude": -73.9916337}, "address": "639A 5th Ave", "categories": "*Coffee & Tea*Breakfast & Brunch*Sandwiches"}, {"rating": 4.5, "name": "Sharkey's Cafe", "zip": "10013", "city": "New York", "coords": {"latitude": 40.7151053845882, "longitude": -73.9995972812176}, "address": "48 Mulberry St", "categories": "*Coffee & Tea*Sandwiches*Breakfast & Brunch"}, {"rating": 4.5, "name": "re.union", "zip": "11211", "city": "Brooklyn", "coords": {"latitude": 40.7169912, "longitude": -73.951841}, "address": "544 Union Ave", "categories": "*Sandwiches*Breakfast & Brunch*Cafes"}, {"rating": 4.0, "name": "The Grey Dog's Coffee", "zip": "10003", "city": "New York", "coords": {"latitude": 40.733828, "longitude": -73.993052}, "address": "90 University Pl", "categories": "*Coffee & Tea*Breakfast & Brunch*Cafes"}, {"rating": 4.0, "name": "Black Cat LES", "zip": "10002", "city": "New York", "coords": {"latitude": 40.719129, "longitude": -73.984509}, "address": "172 Rivington St", "categories": "*Coffee & Tea*Breakfast & Brunch"}, {"rating": 4.0, "name": "Egg Shop", "zip": "10012", "city": "New York", "coords": {"latitude": 40.7202719710339, "longitude": -73.9951605443879}, "address": "151 Elizabeth St", "categories": "*Breakfast & Brunch*Sandwiches"}, {"rating": 4.0, "name": "Cafe Luluc", "zip": "11201", "city": "Brooklyn", "coords": {"latitude": 40.684509, "longitude": -73.992248}, "address": "214 Smith St", "categories": "*French*Breakfast & Brunch*Cafes"}, {"rating": 4.0, "name": "The Grey Dog", "zip": "10011", "city": "New York", "coords": {"latitude": 40.740624, "longitude": -74.000648}, "address": "242 W 16th St", "categories": "*Breakfast & Brunch*Cafes*American (Traditional)"}]
