[{"rating": 4.0, "name": "Alley Twenty Six", "zip": "27701", "city": "Durham", "coords": {"latitude": 35.99675, "longitude": -78.900528}, "address": "320 E Chapel Hill St", "categories": "*Lounges"}, {"rating": 4.5, "name": "Fullsteam Brewery", "zip": "27701", "city": "Durham", "coords": {"latitude": 36.0031355533379, "longitude": -78.8998214192479}, "address": "726 Rigsbee Ave", "categories": "*Breweries*Pubs"}, {"rating": 4.5, "name": "Bar Virgile", "zip": "27701", "city": "Durham", "coords": {"latitude": 35.99467, "longitude": -78.90073}, "address": "105 S Mangum St", "categories": "*Bars*Tapas/Small Plates"}, {"rating": 4.5, "name": "Surf Club", "zip": "27701", "city": "Durham", "coords": {"latitude": 36.002193, "longitude": -78.900383}, "address": "703 Rigsbee Ave", "categories": "*Bars"}, {"rating": 4.5, "name": "Bar Lusconi", "zip": "27701", "city": "Durham", "coords": {"latitude": 35.9946518025523, "longitude": -78.9001159055037}, "address": "117B E Main St", "categories": "*Bars"}, {"rating": 4.0, "name": "The Federal", "zip": "27701", "city": "Durham", "coords": {"latitude": 36.000702197804, "longitude": -78.909943702314}, "address": "914 W Main St", "categories": "*Pubs*American (New)"}, {"rating": 4.5, "name": "The Green Room", "zip": "27705", "city": "Durham", "coords": {"latitude": 36.0160484313965, "longitude": -78.9188537597656}, "address": "1108 Broad St", "categories": "*Pool Halls*Dive Bars"}, {"rating": 4.5, "name": "106 Main", "zip": "27701", "city": "Durham", "coords": {"latitude": 35.9949213908989, "longitude": -78.900496355818}, "address": "106 East Main St", "categories": "*Pubs"}, {"rating": 4.0, "name": "Dain's Place", "zip": "27705", "city": "Durham", "coords": {"latitude": 36.0095596, "longitude": -78.9218674}, "address": "754 9th St", "categories": "*American (Traditional)*Burgers*Bars"}, {"rating": 4.0, "name": "Motorco Music Hall", "zip": "27701", "city": "Durham", "coords": {"latitude": 36.003513, "longitude": -78.900398}, "address": "723 Rigsbee Ave", "categories": "*Bars*Music Venues*Dance Clubs"}, {"rating": 3.5, "name": "Counting House", "zip": "22701", "city": "Durham", "coords": {"latitude": 35.99608, "longitude": -78.90186}, "address": "111 North Corcoran Street", "categories": "*Cocktail Bars*American (New)*Lounges"}, {"rating": 3.5, "name": "Bull McCabe's Irish Pub", "zip": "27701", "city": "Durham", "coords": {"latitude": 35.997200012207, "longitude": -78.9050979614258}, "address": "427 W Main St", "categories": "*Irish*Pubs*Venues & Event Spaces"}, {"rating": 4.0, "name": "The Pinhook", "zip": "27701", "city": "Durham", "coords": {"latitude": 35.995264, "longitude": -78.901513}, "address": "117 W Main St", "categories": "*Bars*Music Venues"}, {"rating": 4.0, "name": "Criterion", "zip": "27701", "city": "Durham", "coords": {"latitude": 35.9966507, "longitude": -78.904068}, "address": "347 W Main St", "categories": "*Bars"}, {"rating": 4.5, "name": "West End Billiards", "zip": "27701", "city": "Durham", "coords": {"latitude": 35.9985559728926, "longitude": -78.9074268937111}, "address": "605 W Main St", "categories": "*Pool Halls*Pool & Billiards*Sports Bars"}, {"rating": 3.5, "name": "Tyler's Restaurant & Taproom", "zip": "27701", "city": "Durham", "coords": {"latitude": 35.9928365126494, "longitude": -78.9055576794144}, "address": "324 Blackwell St", "categories": "*Bars*American (Traditional)"}, {"rating": 4.0, "name": "Six Plates", "zip": "27705", "city": "Durham", "coords": {"latitude": 36.0069860210291, "longitude": -78.9477113589015}, "address": "2812 Erwin Rd Ste 104", "categories": "*Tapas Bars*Wine Bars"}, {"rating": 3.5, "name": "Local 22", "zip": "27705", "city": "Durham", "coords": {"latitude": 36.0079727172852, "longitude": -78.9264984130859}, "address": "2200 W Main St", "categories": "*American (New)*Bars*Gastropubs"}, {"rating": 3.5, "name": "Geer Street Garden", "zip": "27701", "city": "Durham", "coords": {"latitude": 36.003571, "longitude": -78.901123}, "address": "644 Foster St", "categories": "*American (New)*Bars"}, {"rating": 4.5, "name": "Rock's Bar and Hair Shop", "zip": "27701", "city": "Durham", "coords": {"latitude": 35.995306, "longitude": -78.901588}, "address": "119 W Main St", "categories": "*Men's Hair Salons*Bars"}]
