[{"rating": 4.5, "name": "Cheeky Sandwiches", "zip": "10002", "city": "New York", "coords": {"latitude": 40.715801, "longitude": -73.991691}, "address": "35 Orchard St", "categories": "*Sandwiches"}, {"rating": 4.5, "name": "Wah Fung No. 1 Fast Food", "zip": "10002", "city": "New York", "coords": {"latitude": 40.717346, "longitude": -73.994567}, "address": "79 Chrystie St", "categories": "*Chinese*Barbeque*Fast Food"}, {"rating": 4.0, "name": "Xi'an Famous Foods", "zip": "11222", "city": "Brooklyn", "coords": {"latitude": 40.7243728637695, "longitude": -73.950813293457}, "address": "648 Manhattan Ave", "categories": "*Chinese"}, {"rating": 4.5, "name": "Los Tacos No.1", "zip": "10011", "city": "New York", "coords": {"latitude": 40.742455, "longitude": -74.005956}, "address": "Chelsea Market 75 9th Ave", "categories": "*Mexican"}, {"rating": 4.0, "name": "Go! Go! Curry!", "zip": "10018", "city": "New York", "coords": {"latitude": 40.7547188, "longitude": -73.9910736}, "address": "273 W 38th St", "categories": "*Japanese"}, {"rating": 4.0, "name": "Xi'an Famous Foods", "zip": "10036", "city": "New York", "coords": {"latitude": 40.755967711053, "longitude": -73.9809063076973}, "address": "24 W 45th St", "categories": "*Chinese*Burgers*Sandwiches"}, {"rating": 4.5, "name": "Xe May Sandwich Shop", "zip": "10009", "city": "New York", "coords": {"latitude": 40.7275325, "longitude": -73.9848195}, "address": "96 Saint Marks Pl", "categories": "*Sandwiches*Vietnamese"}, {"rating": 4.5, "name": "Nish Nush", "zip": "10013", "city": "New York", "coords": {"latitude": 40.715688, "longitude": -74.007695}, "address": "88 Reade St", "categories": "*Middle Eastern*Vegetarian*Kosher"}, {"rating": 4.0, "name": "Num Pang Sandwich Shop", "zip": "10003", "city": "New York", "coords": {"latitude": 40.7339248657227, "longitude": -73.9931411743164}, "address": "28 E 12th St", "categories": "*Cambodian*Sandwiches"}, {"rating": 4.0, "name": "Wolfnights", "zip": "10002", "city": "New York", "coords": {"latitude": 40.7200314, "longitude": -73.9885104}, "address": "99 Rivington St", "categories": "*Sandwiches"}, {"rating": 4.5, "name": "Nam Nam", "zip": "11206", "city": "Brooklyn", "coords": {"latitude": 40.7071559876204, "longitude": -73.9453167468309}, "address": "109 Montrose Ave", "categories": "*Vietnamese*Coffee & Tea"}, {"rating": 4.5, "name": "Uncle Gussy's", "zip": "10154", "city": "New York", "coords": {"latitude": 40.7576813278964, "longitude": -73.9732953737526}, "address": "345 Park Ave", "categories": "*Greek"}, {"rating": 4.5, "name": "Taim", "zip": "10014", "city": "New York", "coords": {"latitude": 40.736002376347, "longitude": -74.0019588366439}, "address": "222 Waverly Pl", "categories": "*Middle Eastern*Vegetarian*Vegan"}, {"rating": 4.0, "name": "Los Papi's", "zip": "11201", "city": "Brooklyn", "coords": {"latitude": 40.70211, "longitude": -73.9846}, "address": "77 Bridge St", "categories": "*Latin American"}, {"rating": 4.5, "name": "The Cinnamon Snail", "zip": "10001", "city": "New York", "coords": {"latitude": 40.7451758849959, "longitude": -74.0304349729087}, "address": "", "categories": "*Vegan*Food Trucks*Mexican"}, {"rating": 4.5, "name": "Gaia Italian Caf\u00e9", "zip": "10002", "city": "New York", "coords": {"latitude": 40.721653, "longitude": -73.985346}, "address": "251 E Houston St", "categories": "*Italian"}, {"rating": 4.0, "name": "Saigon Shack", "zip": "10012", "city": "New York", "coords": {"latitude": 40.72969, "longitude": -74.000629}, "address": "114 Macdougal St", "categories": "*Vietnamese"}, {"rating": 5.0, "name": "Mountain Province", "zip": "11206", "city": "Brooklyn", "coords": {"latitude": 40.7075228032172, "longitude": -73.9503787374344}, "address": "9 Meserole St", "categories": "*Cafes*Bakeries*Coffee & Tea"}, {"rating": 4.0, "name": "Noodle Village", "zip": "10013", "city": "New York", "coords": {"latitude": 40.714167, "longitude": -73.998803}, "address": "13 Mott St", "categories": "*Chinese"}, {"rating": 4.0, "name": "Margon", "zip": "10036", "city": "New York", "coords": {"latitude": 40.7580177305906, "longitude": -73.9835429191589}, "address": "136 W 46th St", "categories": "*Cuban*Dominican"}]
