[{"rating": 4.5, "name": "Bub and Pop's", "zip": "20036", "city": "Washington", "coords": {"latitude": 38.906029, "longitude": -77.042368}, "address": "1815 M St NW", "categories": "*Sandwiches"}, {"rating": 4.5, "name": "Beef N Bread", "zip": "20001", "city": "Washington", "coords": {"latitude": 38.8996658325195, "longitude": -77.0202026367188}, "address": "750 6th St NW", "categories": "*Delis*Breakfast & Brunch*Sandwiches"}, {"rating": 4.0, "name": "White Apron Specialty Sandwiches", "zip": "20004", "city": "Washington", "coords": {"latitude": 38.8957126973629, "longitude": -77.0268867626984}, "address": "445 11th St NW", "categories": "*Sandwiches*Fast Food*Soup"}, {"rating": 4.5, "name": "Basil Thyme", "zip": "20024", "city": "Washington", "coords": {"latitude": 38.885891, "longitude": -77.0258331}, "address": "L' Enfant Plz", "categories": "*Food Stands*Italian*Food Trucks"}, {"rating": 4.0, "name": "District Taco", "zip": "20004", "city": "Washington", "coords": {"latitude": 38.8975982666016, "longitude": -77.030158996582}, "address": "1309 F St NW", "categories": "*Mexican"}, {"rating": 4.5, "name": "Mangialardo & Sons", "zip": "20003", "city": "Washington", "coords": {"latitude": 38.880844, "longitude": -76.987749}, "address": "1317 Pennsylvania Ave SE", "categories": "*Sandwiches*Italian"}, {"rating": 4.5, "name": "Simply Banh Mi", "zip": "20007", "city": "Washington", "coords": {"latitude": 38.911475972879, "longitude": -77.0656122492302}, "address": "1624 Wisconsin Ave NW", "categories": "*Vietnamese*Sandwiches*Halal"}, {"rating": 4.0, "name": "SUNdeVICH", "zip": "20001", "city": "Washington", "coords": {"latitude": 38.90776373566, "longitude": -77.024359310674}, "address": "1314 9th St NW", "categories": "*Sandwiches"}, {"rating": 4.5, "name": "Taqueria Habanero", "zip": "20010", "city": "Washington", "coords": {"latitude": 38.937553, "longitude": -77.033089}, "address": "3710 14th St NW", "categories": "*Mexican"}, {"rating": 4.5, "name": "Stachowski Market & Deli", "zip": "20007", "city": "Washington", "coords": {"latitude": 38.9091189, "longitude": -77.0569651}, "address": "1425 28th St NW", "categories": "*Butcher*Delis*Polish"}, {"rating": 4.5, "name": "&pizza", "zip": "20004", "city": "Washington", "coords": {"latitude": 38.8962649, "longitude": -77.0263866}, "address": "1005 E St NW", "categories": "*Pizza*Vegetarian*Vegan"}, {"rating": 4.5, "name": "Los Hermanos", "zip": "20010", "city": "Washington", "coords": {"latitude": 38.9304580688477, "longitude": -77.0337905883789}, "address": "1426 Park Rd NW", "categories": "*Dominican"}, {"rating": 4.5, "name": "The Alibi", "zip": "20001", "city": "Washington", "coords": {"latitude": 38.893386, "longitude": -77.013465}, "address": "237 2nd St NW", "categories": "*British*Sandwiches*American (New)"}, {"rating": 4.5, "name": "Neopol Savory Smokery", "zip": "20002", "city": "Washington", "coords": {"latitude": 38.9087806, "longitude": -76.9979685}, "address": "1309 5th St NE", "categories": "*Bakeries*Sandwiches*Seafood"}, {"rating": 4.0, "name": "DCity Smokehouse", "zip": "20001", "city": "Washington", "coords": {"latitude": 38.910887, "longitude": -77.009254}, "address": "8 Florida Ave NW", "categories": "*Barbeque*Sandwiches"}, {"rating": 5.0, "name": "DC Grill Express", "zip": "20009", "city": "Washington", "coords": {"latitude": 38.916072845459, "longitude": -77.0413818359375}, "address": "1917 18th St NW", "categories": "*American (Traditional)*Burgers*Sandwiches"}, {"rating": 4.0, "name": "Market Lunch", "zip": "20003", "city": "Washington", "coords": {"latitude": 38.887001, "longitude": -76.9962845}, "address": "225 7th St SE", "categories": "*American (New)*Breakfast & Brunch"}, {"rating": 4.0, "name": "Founding Farmers", "zip": "20006", "city": "Washington", "coords": {"latitude": 38.9003166398788, "longitude": -77.0446475212375}, "address": "1924 Pennsylvania Ave NW", "categories": "*American (Traditional)"}, {"rating": 4.5, "name": "Amsterdam Falafelshop", "zip": "20009", "city": "Washington", "coords": {"latitude": 38.921199798584, "longitude": -77.041862487793}, "address": "2425 18th St NW", "categories": "*Vegetarian*Middle Eastern*Falafel"}, {"rating": 4.0, "name": "So's Your Mom", "zip": "20009", "city": "Washington", "coords": {"latitude": 38.92171, "longitude": -77.04383}, "address": "1831 Columbia Rd NW", "categories": "*Delis*Specialty Food*Sandwiches"}]
