[{"rating": 4.0, "name": "The Original Q Shack", "zip": "27707", "city": "Durham", "coords": {"latitude": 35.9746284484863, "longitude": -78.9242935180664}, "address": "2510 University Dr", "categories": "*Barbeque"}, {"rating": 4.5, "name": "The Blue Note Grill", "zip": "27701", "city": "Durham", "coords": {"latitude": 36.0042533874512, "longitude": -78.9030075073242}, "address": "709 Washington St", "categories": "*American (Traditional)*Barbeque"}, {"rating": 3.5, "name": "The Pit", "zip": "27701", "city": "Durham", "coords": {"latitude": 36.0036746975779, "longitude": -78.899794918453}, "address": "321 W Geer St", "categories": "*Barbeque"}, {"rating": 4.0, "name": "Hog Heaven Bar-B-Q", "zip": "27705", "city": "Durham", "coords": {"latitude": 36.0264249891043, "longitude": -78.922757729888}, "address": "2419 Guess Rd", "categories": "*Barbeque"}, {"rating": 4.5, "name": "Backyard BBQ Pit", "zip": "27713", "city": "Durham", "coords": {"latitude": 35.8940399, "longitude": -78.89797}, "address": "5122 NC Hwy 55", "categories": "*Barbeque"}, {"rating": 3.5, "name": "Bullock's Bar-B-Q", "zip": "27705", "city": "Durham", "coords": {"latitude": 36.02004, "longitude": -78.94484}, "address": "3330 Quebec Dr", "categories": "*Barbeque*Caterers"}, {"rating": 4.5, "name": "Johnson Family Barbeque", "zip": "27703", "city": "Durham", "coords": {"latitude": 35.9770584, "longitude": -78.7933884}, "address": "5021 A Wake Forest Hwy", "categories": "*American (Traditional)*Barbeque"}, {"rating": 4.5, "name": "KoKyu BBQ", "zip": "27701", "city": "Durham", "coords": {"latitude": 35.99857, "longitude": -78.90226}, "address": "", "categories": "*Barbeque*Food Trucks"}, {"rating": 4.0, "name": "Byrd's Barbecue", "zip": "27703", "city": "Durham", "coords": {"latitude": 36.006115, "longitude": -78.840462}, "address": "2816 Cheek Rd", "categories": "*Barbeque*Breakfast & Brunch"}, {"rating": 4.5, "name": "Barbecue Heaven", "zip": "27707", "city": "Durham", "coords": {"latitude": 35.9852066, "longitude": -78.8991241}, "address": "Phoeinix Crossing Shopping Center 908 Fayetteville St", "categories": "*Barbeque"}, {"rating": 5.0, "name": "KoKyu Na'Mean", "zip": "27713", "city": "Durham", "coords": {"latitude": 35.8988122370959, "longitude": -78.8949339754335}, "address": "4823 Meadow Dr Ste 108", "categories": "*Barbeque*Sandwiches*Korean"}, {"rating": 3.5, "name": "Danny's Bar-B-Que", "zip": "27703", "city": "Durham", "coords": {"latitude": 35.9239501953125, "longitude": -78.843879699707}, "address": "2945 S Miami Blvd Ste 118", "categories": "*Barbeque"}, {"rating": 3.5, "name": "BBQ Heaven", "zip": "27707", "city": "Durham", "coords": {"latitude": 35.9855554997921, "longitude": -78.8989075273275}, "address": "Phoenix Square 826 Fayetteville St", "categories": "*Barbeque*Bars"}, {"rating": 5.0, "name": "Gorman Ruritan Club", "zip": "27704", "city": "Durham", "coords": {"latitude": 36.0272407531738, "longitude": -78.8395462036133}, "address": "2309 E Geer St", "categories": "*Barbeque"}, {"rating": 2.5, "name": "Dickey's Barbecue Pit", "zip": "27707", "city": "Durham", "coords": {"latitude": 35.9547080844641, "longitude": -78.993808105588}, "address": "5318 New Hope Commons Dr", "categories": "*Barbeque"}, {"rating": 2.5, "name": "Ole NC Bar-B-Que", "zip": "27704", "city": "Durham", "coords": {"latitude": 36.0477638, "longitude": -78.9056778}, "address": "3600 N Duke St", "categories": "*Barbeque"}, {"rating": 4.0, "name": "The Pig", "zip": "27514", "city": "Chapel Hill", "coords": {"latitude": 35.9623223186114, "longitude": -79.0349154905218}, "address": "630 Weaver Dairy Rd", "categories": "*Barbeque"}, {"rating": 3.5, "name": "Texas Roadhouse", "zip": "27705", "city": "Durham", "coords": {"latitude": 36.0294369964725, "longitude": -78.9226905376645}, "address": "1809 N. Pointe Dr", "categories": "*Steakhouses*Barbeque*American (Traditional)"}, {"rating": 4.0, "name": "Allen & Son Bar-B-Que", "zip": "27516", "city": "Chapel Hill", "coords": {"latitude": 35.9880821406841, "longitude": -79.0745405852795}, "address": "6203 Millhouse Rd", "categories": "*Barbeque"}, {"rating": 4.0, "name": "Smokey's BBQ Shack", "zip": "27560", "city": "Morrisville", "coords": {"latitude": 35.849843, "longitude": -78.839056}, "address": "10800 Chapel Hill Rd", "categories": "*Barbeque*Caterers"}]
