[{"rating": 4.0, "name": "Pizzeria Toro", "zip": "27701", "city": "Durham", "coords": {"latitude": 35.9969850629568, "longitude": -78.9036376029253}, "address": "105 E Chapel Hill St", "categories": "*Italian*Pizza"}, {"rating": 3.5, "name": "Pompieri Pizza", "zip": "27701", "city": "Durham", "coords": {"latitude": 35.995815, "longitude": -78.899651}, "address": "102 City Hall Plz", "categories": "*Pizza*American (New)"}, {"rating": 4.0, "name": "Pizza Mia", "zip": "27705", "city": "Durham", "coords": {"latitude": 36.0069555044174, "longitude": -78.946982100606}, "address": "2812 Erwin Rd Ste 103", "categories": "*Italian*Pizza*Sandwiches"}, {"rating": 3.5, "name": "Lilly's Pizza", "zip": "27701", "city": "Durham", "coords": {"latitude": 35.999169, "longitude": -78.909291}, "address": "810 W Peabody St", "categories": "*Pizza"}, {"rating": 3.5, "name": "Mellow Mushroom", "zip": "27701", "city": "Durham", "coords": {"latitude": 35.9921088069677, "longitude": -78.9050585031509}, "address": "410 Blackwell St", "categories": "*Pizza*Bars*Sandwiches"}, {"rating": 3.5, "name": "Enzo's Pizza Co.", "zip": "27705", "city": "Durham", "coords": {"latitude": 36.00954, "longitude": -78.9449}, "address": "2608 Erwin Rd Ste 140", "categories": "*Pizza*Salad"}, {"rating": 4.5, "name": "Golden Pizza & Subs", "zip": "27707", "city": "Durham", "coords": {"latitude": 35.983196, "longitude": -78.931076}, "address": "2300 Chapel Hill Rd", "categories": "*Pizza*Sandwiches"}, {"rating": 4.0, "name": "Pie Pushers", "zip": 0, "city": "Durham", "coords": {"latitude": 35.995418548584, "longitude": -78.8964385986328}, "address": "", "categories": "*Pizza*Food Trucks"}, {"rating": 3.5, "name": "Randy's Pizza", "zip": "27701", "city": "Durham", "coords": {"latitude": 36.01935736835, "longitude": -78.9136067032814}, "address": "The Shops At Northgate 1720 Guess Rd", "categories": "*Pizza*Sandwiches"}, {"rating": 3.5, "name": "Randy's Pizza", "zip": "27707", "city": "Durham", "coords": {"latitude": 35.9598984864415, "longitude": -78.9584895094192}, "address": "1813 Martin Luther King Pkwy", "categories": "*Pizza"}, {"rating": 3.5, "name": "Ricky's NY Pizza", "zip": "27712", "city": "Durham", "coords": {"latitude": 36.0765113830566, "longitude": -78.9112243652344}, "address": "5279 N Roxboro Rd", "categories": "*Pizza"}, {"rating": 4.0, "name": "Nosh", "zip": "27705", "city": "Durham", "coords": {"latitude": 36.007468, "longitude": -78.9472}, "address": "2812 Erwin Rd Ste 101", "categories": "*Burgers*Pizza*Sandwiches"}, {"rating": 3.5, "name": "Pop's Backdoor Pizza and Calzones", "zip": "27707", "city": "Durham", "coords": {"latitude": 35.956211, "longitude": -78.956085}, "address": "3710 Shannon Rd", "categories": "*Pizza*Italian"}, {"rating": 3.5, "name": "Randy's Pizza", "zip": "27701", "city": "Durham", "coords": {"latitude": 35.9217240815659, "longitude": -78.9582060177627}, "address": "4730 Hope Valley Rd", "categories": "*Pizza"}, {"rating": 4.0, "name": "Randy's Pizza", "zip": "27703", "city": "Durham", "coords": {"latitude": 35.8806489198704, "longitude": -78.8500235806324}, "address": "5311 S Miami Blvd", "categories": "*Pizza"}, {"rating": 4.0, "name": "Marco's Pizza", "zip": "27707", "city": "Durham", "coords": {"latitude": 35.9174972, "longitude": -78.9583786}, "address": "1125 W NC Hwy 54 Ste 406", "categories": "*Pizza*Salad*Sandwiches"}, {"rating": 3.0, "name": "Italian Pizzeria Restaurant", "zip": "27705", "city": "Durham", "coords": {"latitude": 36.0580770426154, "longitude": -78.9304066956078}, "address": "3823 Guess Rd", "categories": "*Italian*Pizza"}, {"rating": 3.5, "name": "Rudino's Pizza & Grinders", "zip": "27705", "city": "Durham", "coords": {"latitude": 36.0271416, "longitude": -78.9163513}, "address": "1515 N Pointe Dr", "categories": "*Pizza*Sandwiches"}, {"rating": 3.0, "name": "Amante Gourmet Pizza", "zip": "27713", "city": "Durham", "coords": {"latitude": 35.949573, "longitude": -78.921174}, "address": "Shoppes at Hope Valley 3825 S Roxboro St, Ste 135", "categories": "*Pizza*Italian"}, {"rating": 3.5, "name": "Pulcinella", "zip": "27707", "city": "Durham", "coords": {"latitude": 35.9209213256836, "longitude": -78.9564208984375}, "address": "Woodcroft Shopping Center 4711 Hope Valley Rd", "categories": "*Italian*Pizza"}]
