[{"rating": 4.0, "name": "Triple B Fresh", "zip": "20036", "city": "Washington", "coords": {"latitude": 38.9107260170919, "longitude": -77.0436065962981}, "address": "1506 19th St NW", "categories": "*Korean*Vegetarian"}, {"rating": 4.5, "name": "Los Hermanos", "zip": "20010", "city": "Washington", "coords": {"latitude": 38.9304580688477, "longitude": -77.0337905883789}, "address": "1426 Park Rd NW", "categories": "*Dominican"}, {"rating": 4.5, "name": "Simply Banh Mi", "zip": "20007", "city": "Washington", "coords": {"latitude": 38.911475972879, "longitude": -77.0656122492302}, "address": "1624 Wisconsin Ave NW", "categories": "*Vietnamese*Sandwiches*Halal"}, {"rating": 4.5, "name": "Amsterdam Falafelshop", "zip": "20009", "city": "Washington", "coords": {"latitude": 38.921199798584, "longitude": -77.041862487793}, "address": "2425 18th St NW", "categories": "*Vegetarian*Middle Eastern*Falafel"}, {"rating": 4.0, "name": "White Apron Specialty Sandwiches", "zip": "20004", "city": "Washington", "coords": {"latitude": 38.8957126973629, "longitude": -77.0268867626984}, "address": "445 11th St NW", "categories": "*Sandwiches*Fast Food*Soup"}, {"rating": 4.5, "name": "Keren Restaurant", "zip": "20009", "city": "Washington", "coords": {"latitude": 38.916715, "longitude": -77.041243}, "address": "1780 Florida Ave NW", "categories": "*Ethiopian*Cafes"}, {"rating": 4.0, "name": "Moby Dick House of Kabob", "zip": "20036", "city": "Washington", "coords": {"latitude": 38.907398, "longitude": -77.042834}, "address": "1300 Connecticut Ave NW", "categories": "*Middle Eastern*Persian/Iranian"}, {"rating": 4.0, "name": "Far East Taco Grille", "zip": "20009", "city": "Washington", "coords": {"latitude": 38.8950003408186, "longitude": -77.0366669073701}, "address": "409 15th St NE", "categories": "*Asian Fusion*Food Trucks*Mexican"}, {"rating": 4.0, "name": "District Taco", "zip": "20004", "city": "Washington", "coords": {"latitude": 38.8975982666016, "longitude": -77.030158996582}, "address": "1309 F St NW", "categories": "*Mexican"}, {"rating": 4.0, "name": "Boundary Stone", "zip": "20001", "city": "Washington", "coords": {"latitude": 38.915368820068, "longitude": -77.012792823801}, "address": "116 Rhode Island Ave NW", "categories": "*American (New)*Pubs*Sandwiches"}, {"rating": 4.0, "name": "Byblos Deli", "zip": "20008", "city": "Washington", "coords": {"latitude": 38.9347115, "longitude": -77.0583878}, "address": "3414 Connecticut Ave NW", "categories": "*Middle Eastern"}, {"rating": 4.5, "name": "&pizza", "zip": "20002", "city": "Washington", "coords": {"latitude": 38.90045, "longitude": -76.99078}, "address": "1118 H St NE", "categories": "*Pizza*Vegetarian*Vegan"}, {"rating": 4.0, "name": "Tortilla Cafe", "zip": "20003", "city": "Washington", "coords": {"latitude": 38.88696, "longitude": -76.9958}, "address": "210 7th St SE", "categories": "*Latin American*Mexican"}, {"rating": 4.5, "name": "Zenebech Injera", "zip": "20001", "city": "Washington", "coords": {"latitude": 38.9154515, "longitude": -77.0205377}, "address": "608 T St NW", "categories": "*Ethiopian"}, {"rating": 4.0, "name": "El Rinconcito Cafe", "zip": "20001", "city": "Washington", "coords": {"latitude": 38.90545, "longitude": -77.02666}, "address": "1129 11th St NW", "categories": "*Latin American"}, {"rating": 4.0, "name": "China Boy", "zip": "20001", "city": "Washington", "coords": {"latitude": 38.9003715515137, "longitude": -77.0195693969727}, "address": "815 6th St NW", "categories": "*Chinese"}, {"rating": 4.0, "name": "Vace", "zip": "20008", "city": "Washington", "coords": {"latitude": 38.9340759716828, "longitude": -77.0572900772095}, "address": "3315 Connecticut Ave NW", "categories": "*Pizza*Delis*Italian"}, {"rating": 4.5, "name": "Woodland's Vegan Bistro", "zip": "20001", "city": "Washington", "coords": {"latitude": 38.9278669, "longitude": -77.0232229}, "address": "2928 Georgia Ave NW", "categories": "*Vegan*Soul Food"}, {"rating": 4.0, "name": "Red Derby", "zip": "20010", "city": "Washington", "coords": {"latitude": 38.9377212, "longitude": -77.0328196}, "address": "3718 14th St NW", "categories": "*Dive Bars*Breakfast & Brunch*Burgers"}, {"rating": 4.0, "name": "Fast Gourmet", "zip": "20009", "city": "Washington", "coords": {"latitude": 38.919017791748, "longitude": -77.032356262207}, "address": "1400 W St NW", "categories": "*Latin American*Sandwiches*Burgers"}]
